site_name,state,lat,lon,elevation_m,pct_of_median_longterm_swe,daily_swe_change_inches,HUC02,file_name,water_year,date,year,month,day
Hannagan Meadows,AZ,33.65,-109.31,2749.3,44,0,HUC15,SnowToday_USwest_20210101_SWEsummary.txt,wy2021,2021-01-01,2021,1,1
Adin Mtn,CA,41.24,-120.79,1886.7,111,0,HUC18,SnowToday_USwest_20210101_SWEsummary.txt,wy2021,2021-01-01,2021,1,1
Blue Lakes,CA,38.61,-119.92,2458.8,84,0,HUC16,SnowToday_USwest_20210101_SWEsummary.txt,wy2021,2021-01-01,2021,1,1
Cedar Pass,CA,41.58,-120.3,2142.7,94,0,HUC18,SnowToday_USwest_20210101_SWEsummary.txt,wy2021,2021-01-01,2021,1,1
Css Lab,CA,39.33,-120.37,2101.3,107,0.3,HUC18,SnowToday_USwest_20210101_SWEsummary.txt,wy2021,2021-01-01,2021,1,1
Dismal Swamp,CA,41.99,-120.18,2243.3,89,0,HUC17,SnowToday_USwest_20210101_SWEsummary.txt,wy2021,2021-01-01,2021,1,1
Ebbetts Pass,CA,38.55,-119.8,2639.9,81,0.2,HUC16,SnowToday_USwest_20210101_SWEsummary.txt,wy2021,2021-01-01,2021,1,1
Echo Peak,CA,38.85,-120.08,2332.6,96,0.2,HUC16,SnowToday_USwest_20210101_SWEsummary.txt,wy2021,2021-01-01,2021,1,1
Fallen Leaf,CA,38.93,-120.05,1902.6,150,0,HUC16,SnowToday_USwest_20210101_SWEsummary.txt,wy2021,2021-01-01,2021,1,1
Hagans Meadow,CA,38.85,-119.94,2359.8,112,0.2,HUC16,SnowToday_USwest_20210101_SWEsummary.txt,wy2021,2021-01-01,2021,1,1
Heavenly Valley,CA,38.92,-119.92,2601.2,89,0.2,HUC16,SnowToday_USwest_20210101_SWEsummary.txt,wy2021,2021-01-01,2021,1,1
Independence Camp,CA,39.45,-120.29,2127.5,103,0,HUC16,SnowToday_USwest_20210101_SWEsummary.txt,wy2021,2021-01-01,2021,1,1
Independence Creek,CA,39.49,-120.28,1961.7,81,0,HUC16,SnowToday_USwest_20210101_SWEsummary.txt,wy2021,2021-01-01,2021,1,1
Independence Lake,CA,39.43,-120.31,2541.4,75,0,HUC16,SnowToday_USwest_20210101_SWEsummary.txt,wy2021,2021-01-01,2021,1,1
Leavitt Lake,CA,38.28,-119.61,2927.3,63,0,HUC16,SnowToday_USwest_20210101_SWEsummary.txt,wy2021,2021-01-01,2021,1,1
Leavitt Meadows,CA,38.3,-119.55,2194,69,0,HUC16,SnowToday_USwest_20210101_SWEsummary.txt,wy2021,2021-01-01,2021,1,1
Lobdell Lake,CA,38.44,-119.37,2819.1,42,-0.2,HUC16,SnowToday_USwest_20210101_SWEsummary.txt,wy2021,2021-01-01,2021,1,1
Monitor Pass,CA,38.67,-119.61,2531.7,95,0,HUC16,SnowToday_USwest_20210101_SWEsummary.txt,wy2021,2021-01-01,2021,1,1
Poison Flat,CA,38.51,-119.63,2357.9,83,-0.2,HUC16,SnowToday_USwest_20210101_SWEsummary.txt,wy2021,2021-01-01,2021,1,1
Rubicon #2,CA,39,-120.13,2322.3,84,0,HUC16,SnowToday_USwest_20210101_SWEsummary.txt,wy2021,2021-01-01,2021,1,1
Sonora Pass,CA,38.31,-119.6,2673.1,63,-0.2,HUC16,SnowToday_USwest_20210101_SWEsummary.txt,wy2021,2021-01-01,2021,1,1
Spratt Creek,CA,38.67,-119.82,1848,153,0,HUC16,SnowToday_USwest_20210101_SWEsummary.txt,wy2021,2021-01-01,2021,1,1
Squaw Valley G.C.,CA,39.19,-120.27,2442.4,69,0.3,HUC16,SnowToday_USwest_20210101_SWEsummary.txt,wy2021,2021-01-01,2021,1,1
Tahoe City Cross,CA,39.17,-120.15,2071.7,53,0,HUC16,SnowToday_USwest_20210101_SWEsummary.txt,wy2021,2021-01-01,2021,1,1
Truckee #2,CA,39.3,-120.18,1983.9,96,0,HUC16,SnowToday_USwest_20210101_SWEsummary.txt,wy2021,2021-01-01,2021,1,1
Virginia Lakes Ridge,CA,38.07,-119.23,2865.1,61,0,HUC16,SnowToday_USwest_20210101_SWEsummary.txt,wy2021,2021-01-01,2021,1,1
Ward Creek #3,CA,39.14,-120.22,2055.9,99,0,HUC16,SnowToday_USwest_20210101_SWEsummary.txt,wy2021,2021-01-01,2021,1,1
Apishapa,CO,37.33,-105.07,3048,90,0,HUC11,SnowToday_USwest_20210101_SWEsummary.txt,wy2021,2021-01-01,2021,1,1
Bear Lake,CO,40.31,-105.64,2895.6,55,0,HUC10,SnowToday_USwest_20210101_SWEsummary.txt,wy2021,2021-01-01,2021,1,1
Beartown,CO,37.71,-107.51,3535.7,87,0,HUC13,SnowToday_USwest_20210101_SWEsummary.txt,wy2021,2021-01-01,2021,1,1
Berthoud Summit,CO,39.8,-105.78,3444.2,95,0,HUC14,SnowToday_USwest_20210101_SWEsummary.txt,wy2021,2021-01-01,2021,1,1
Bison Lake,CO,39.76,-107.36,3316.2,81,0,HUC14,SnowToday_USwest_20210101_SWEsummary.txt,wy2021,2021-01-01,2021,1,1
Brumley,CO,39.09,-106.54,3230.9,100,0,HUC11,SnowToday_USwest_20210101_SWEsummary.txt,wy2021,2021-01-01,2021,1,1
Buffalo Park,CO,40.23,-106.6,2816.4,77,0,HUC14,SnowToday_USwest_20210101_SWEsummary.txt,wy2021,2021-01-01,2021,1,1
Burro Mountain,CO,39.88,-107.6,2865.1,67,NA,HUC14,SnowToday_USwest_20210101_SWEsummary.txt,wy2021,2021-01-01,2021,1,1
Butte,CO,38.89,-106.95,3096.8,87,0,HUC14,SnowToday_USwest_20210101_SWEsummary.txt,wy2021,2021-01-01,2021,1,1
Cascade,CO,37.65,-107.81,2706.6,52,0,HUC14,SnowToday_USwest_20210101_SWEsummary.txt,wy2021,2021-01-01,2021,1,1
Columbine,CO,40.39,-106.6,2792,69,0,HUC10,SnowToday_USwest_20210101_SWEsummary.txt,wy2021,2021-01-01,2021,1,1
Columbine Pass,CO,38.42,-108.38,2865.1,61,0,HUC14,SnowToday_USwest_20210101_SWEsummary.txt,wy2021,2021-01-01,2021,1,1
Columbus Basin,CO,37.44,-108.02,3287.3,56,0,HUC14,SnowToday_USwest_20210101_SWEsummary.txt,wy2021,2021-01-01,2021,1,1
Copeland Lake,CO,40.21,-105.57,2621.3,89,0,HUC10,SnowToday_USwest_20210101_SWEsummary.txt,wy2021,2021-01-01,2021,1,1
Copper Mountain,CO,39.49,-106.17,3215.6,91,0,HUC14,SnowToday_USwest_20210101_SWEsummary.txt,wy2021,2021-01-01,2021,1,1
Crosho,CO,40.17,-107.06,2773.7,75,0,HUC14,SnowToday_USwest_20210101_SWEsummary.txt,wy2021,2021-01-01,2021,1,1
Culebra #2,CO,37.21,-105.2,3200.4,146,0,HUC13,SnowToday_USwest_20210101_SWEsummary.txt,wy2021,2021-01-01,2021,1,1
Cumbres Trestle,CO,37.02,-106.45,3060.2,101,0,HUC13,SnowToday_USwest_20210101_SWEsummary.txt,wy2021,2021-01-01,2021,1,1
Deadman Hill,CO,40.81,-105.77,3115.1,85,0.2,HUC10,SnowToday_USwest_20210101_SWEsummary.txt,wy2021,2021-01-01,2021,1,1
Dry Lake,CO,40.53,-106.78,2560.3,78,0,HUC14,SnowToday_USwest_20210101_SWEsummary.txt,wy2021,2021-01-01,2021,1,1
El Diente Peak,CO,37.79,-108.02,3048,96,0,HUC14,SnowToday_USwest_20210101_SWEsummary.txt,wy2021,2021-01-01,2021,1,1
Elk River,CO,40.85,-106.97,2651.8,83,0,HUC14,SnowToday_USwest_20210101_SWEsummary.txt,wy2021,2021-01-01,2021,1,1
Fremont Pass,CO,39.38,-106.2,3474.7,71,0,HUC14,SnowToday_USwest_20210101_SWEsummary.txt,wy2021,2021-01-01,2021,1,1
Grizzly Peak,CO,39.65,-105.87,3383.3,71,0,HUC14,SnowToday_USwest_20210101_SWEsummary.txt,wy2021,2021-01-01,2021,1,1
Hoosier Pass,CO,39.36,-106.06,3474.7,83,0,HUC10,SnowToday_USwest_20210101_SWEsummary.txt,wy2021,2021-01-01,2021,1,1
Idarado,CO,37.93,-107.68,2987,93,0,HUC14,SnowToday_USwest_20210101_SWEsummary.txt,wy2021,2021-01-01,2021,1,1
Independence Pass,CO,39.08,-106.61,3230.9,79,0,HUC14,SnowToday_USwest_20210101_SWEsummary.txt,wy2021,2021-01-01,2021,1,1
Ivanhoe,CO,39.29,-106.55,3169.9,95,0,HUC14,SnowToday_USwest_20210101_SWEsummary.txt,wy2021,2021-01-01,2021,1,1
Joe Wright,CO,40.53,-105.89,3084.6,84,0,HUC10,SnowToday_USwest_20210101_SWEsummary.txt,wy2021,2021-01-01,2021,1,1
Kiln,CO,39.32,-106.61,2926.1,75,0,HUC14,SnowToday_USwest_20210101_SWEsummary.txt,wy2021,2021-01-01,2021,1,1
Lake Eldora,CO,39.94,-105.59,2956.6,71,0,HUC10,SnowToday_USwest_20210101_SWEsummary.txt,wy2021,2021-01-01,2021,1,1
Lake Irene,CO,40.41,-105.82,3261.4,72,0,HUC14,SnowToday_USwest_20210101_SWEsummary.txt,wy2021,2021-01-01,2021,1,1
Lily Pond,CO,37.38,-106.55,3352.8,114,0,HUC13,SnowToday_USwest_20210101_SWEsummary.txt,wy2021,2021-01-01,2021,1,1
Lizard Head Pass,CO,37.8,-107.92,3109,76,0,HUC14,SnowToday_USwest_20210101_SWEsummary.txt,wy2021,2021-01-01,2021,1,1
Lone Cone,CO,37.89,-108.2,2926.1,77,0,HUC14,SnowToday_USwest_20210101_SWEsummary.txt,wy2021,2021-01-01,2021,1,1
Loveland Basin,CO,39.67,-105.9,3474.7,84,0,HUC10,SnowToday_USwest_20210101_SWEsummary.txt,wy2021,2021-01-01,2021,1,1
Lynx Pass,CO,40.08,-106.67,2706.6,85,0.2,HUC14,SnowToday_USwest_20210101_SWEsummary.txt,wy2021,2021-01-01,2021,1,1
Mancos,CO,37.43,-108.17,3048,40,0,HUC14,SnowToday_USwest_20210101_SWEsummary.txt,wy2021,2021-01-01,2021,1,1
Mc Clure Pass,CO,39.13,-107.29,2895.6,68,0,HUC14,SnowToday_USwest_20210101_SWEsummary.txt,wy2021,2021-01-01,2021,1,1
Mesa Lakes,CO,39.06,-108.06,3048,55,0,HUC14,SnowToday_USwest_20210101_SWEsummary.txt,wy2021,2021-01-01,2021,1,1
Middle Creek,CO,37.62,-107.03,3429,103,0,HUC13,SnowToday_USwest_20210101_SWEsummary.txt,wy2021,2021-01-01,2021,1,1
Mineral Creek,CO,37.85,-107.73,3060.2,95,0,HUC14,SnowToday_USwest_20210101_SWEsummary.txt,wy2021,2021-01-01,2021,1,1
Molas Lake,CO,37.75,-107.69,3200.4,78,0,HUC14,SnowToday_USwest_20210101_SWEsummary.txt,wy2021,2021-01-01,2021,1,1
Nast Lake,CO,39.3,-106.61,2651.8,119,0,HUC14,SnowToday_USwest_20210101_SWEsummary.txt,wy2021,2021-01-01,2021,1,1
Niwot,CO,40.04,-105.54,3020.6,61,0,HUC10,SnowToday_USwest_20210101_SWEsummary.txt,wy2021,2021-01-01,2021,1,1
North Lost Trail,CO,39.08,-107.14,2804.2,93,0,HUC14,SnowToday_USwest_20210101_SWEsummary.txt,wy2021,2021-01-01,2021,1,1
Overland Res.,CO,39.09,-107.63,2999.2,59,0,HUC14,SnowToday_USwest_20210101_SWEsummary.txt,wy2021,2021-01-01,2021,1,1
Park Cone,CO,38.82,-106.59,2926.1,100,0,HUC14,SnowToday_USwest_20210101_SWEsummary.txt,wy2021,2021-01-01,2021,1,1
Park Reservoir,CO,39.05,-107.87,3035.8,69,0.2,HUC14,SnowToday_USwest_20210101_SWEsummary.txt,wy2021,2021-01-01,2021,1,1
Phantom Valley,CO,40.4,-105.85,2752.3,65,0,HUC14,SnowToday_USwest_20210101_SWEsummary.txt,wy2021,2021-01-01,2021,1,1
Porphyry Creek,CO,38.49,-106.34,3279.6,84,0,HUC14,SnowToday_USwest_20210101_SWEsummary.txt,wy2021,2021-01-01,2021,1,1
Rabbit Ears,CO,40.37,-106.74,2865.1,53,0,HUC14,SnowToday_USwest_20210101_SWEsummary.txt,wy2021,2021-01-01,2021,1,1
Red Mountain Pass,CO,37.89,-107.71,3413.8,86,0,HUC14,SnowToday_USwest_20210101_SWEsummary.txt,wy2021,2021-01-01,2021,1,1
Ripple Creek,CO,40.11,-107.29,3151.6,81,0,HUC14,SnowToday_USwest_20210101_SWEsummary.txt,wy2021,2021-01-01,2021,1,1
Roach,CO,40.88,-106.05,2956.6,84,0,HUC10,SnowToday_USwest_20210101_SWEsummary.txt,wy2021,2021-01-01,2021,1,1
Schofield Pass,CO,39.02,-107.05,3261.4,70,0,HUC14,SnowToday_USwest_20210101_SWEsummary.txt,wy2021,2021-01-01,2021,1,1
Scotch Creek,CO,37.65,-108.01,2773.7,79,0,HUC14,SnowToday_USwest_20210101_SWEsummary.txt,wy2021,2021-01-01,2021,1,1
Slumgullion,CO,37.99,-107.2,3523.5,99,0,HUC14,SnowToday_USwest_20210101_SWEsummary.txt,wy2021,2021-01-01,2021,1,1
South Colony,CO,37.97,-105.54,3291.8,143,0,HUC11,SnowToday_USwest_20210101_SWEsummary.txt,wy2021,2021-01-01,2021,1,1
Spud Mountain,CO,37.7,-107.78,3249.2,79,0,HUC14,SnowToday_USwest_20210101_SWEsummary.txt,wy2021,2021-01-01,2021,1,1
Stump Lakes,CO,37.48,-107.63,3413.8,81,0,HUC14,SnowToday_USwest_20210101_SWEsummary.txt,wy2021,2021-01-01,2021,1,1
Summit Ranch,CO,39.72,-106.16,2865.1,91,0,HUC14,SnowToday_USwest_20210101_SWEsummary.txt,wy2021,2021-01-01,2021,1,1
Tower,CO,40.54,-106.68,3200.4,62,0,HUC14,SnowToday_USwest_20210101_SWEsummary.txt,wy2021,2021-01-01,2021,1,1
Trinchera,CO,37.35,-105.23,3310.1,133,0,HUC13,SnowToday_USwest_20210101_SWEsummary.txt,wy2021,2021-01-01,2021,1,1
University Camp,CO,40.03,-105.58,3139.4,68,0,HUC10,SnowToday_USwest_20210101_SWEsummary.txt,wy2021,2021-01-01,2021,1,1
Upper Rio Grande,CO,37.72,-107.26,2865.1,114,0,HUC13,SnowToday_USwest_20210101_SWEsummary.txt,wy2021,2021-01-01,2021,1,1
Upper San Juan,CO,37.49,-106.84,3109,105,0.2,HUC14,SnowToday_USwest_20210101_SWEsummary.txt,wy2021,2021-01-01,2021,1,1
Vail Mountain,CO,39.62,-106.38,3139.4,78,0,HUC14,SnowToday_USwest_20210101_SWEsummary.txt,wy2021,2021-01-01,2021,1,1
Vallecito,CO,37.49,-107.51,3316.2,100,0,HUC14,SnowToday_USwest_20210101_SWEsummary.txt,wy2021,2021-01-01,2021,1,1
Whiskey Ck,CO,37.21,-105.12,3115.1,100,0,HUC11,SnowToday_USwest_20210101_SWEsummary.txt,wy2021,2021-01-01,2021,1,1
Willow Creek Pass,CO,40.35,-106.09,2907.8,87,0,HUC14,SnowToday_USwest_20210101_SWEsummary.txt,wy2021,2021-01-01,2021,1,1
Willow Park,CO,40.43,-105.73,3261.4,78,0,HUC10,SnowToday_USwest_20210101_SWEsummary.txt,wy2021,2021-01-01,2021,1,1
Wolf Creek Summit,CO,37.48,-106.8,3352.8,108,0,HUC13,SnowToday_USwest_20210101_SWEsummary.txt,wy2021,2021-01-01,2021,1,1
Atlanta Summit,ID,43.76,-115.24,2310.4,81,0,HUC17,SnowToday_USwest_20210101_SWEsummary.txt,wy2021,2021-01-01,2021,1,1
Banner Summit,ID,44.3,-115.23,2145.8,82,0.2,HUC17,SnowToday_USwest_20210101_SWEsummary.txt,wy2021,2021-01-01,2021,1,1
Bear Basin,ID,44.95,-116.14,1630.7,96,0.2,HUC17,SnowToday_USwest_20210101_SWEsummary.txt,wy2021,2021-01-01,2021,1,1
Bear Canyon,ID,43.74,-113.94,2407.9,65,0,HUC17,SnowToday_USwest_20210101_SWEsummary.txt,wy2021,2021-01-01,2021,1,1
Bear Mountain,ID,48.31,-116.07,1645.9,87,0.6,HUC17,SnowToday_USwest_20210101_SWEsummary.txt,wy2021,2021-01-01,2021,1,1
Bear Saddle,ID,44.61,-116.98,1883.7,90,0,HUC17,SnowToday_USwest_20210101_SWEsummary.txt,wy2021,2021-01-01,2021,1,1
Big Creek Summit,ID,44.63,-115.8,1999.5,80,0.2,HUC17,SnowToday_USwest_20210101_SWEsummary.txt,wy2021,2021-01-01,2021,1,1
Bostetter R.S.,ID,42.16,-114.19,2286,79,0,HUC17,SnowToday_USwest_20210101_SWEsummary.txt,wy2021,2021-01-01,2021,1,1
Brundage Reservoir,ID,45.04,-116.13,1905,103,0.2,HUC17,SnowToday_USwest_20210101_SWEsummary.txt,wy2021,2021-01-01,2021,1,1
Camas Creek Divide,ID,43.27,-115.35,1740.4,104,0,HUC17,SnowToday_USwest_20210101_SWEsummary.txt,wy2021,2021-01-01,2021,1,1
Chocolate Gulch,ID,43.77,-114.42,1923.3,79,0,HUC17,SnowToday_USwest_20210101_SWEsummary.txt,wy2021,2021-01-01,2021,1,1
Cool Creek,ID,46.76,-115.3,1914.1,97,0.7,HUC17,SnowToday_USwest_20210101_SWEsummary.txt,wy2021,2021-01-01,2021,1,1
Cozy Cove,ID,44.29,-115.66,1645.9,100,0,HUC17,SnowToday_USwest_20210101_SWEsummary.txt,wy2021,2021-01-01,2021,1,1
Crab Creek,ID,44.44,-111.99,2103.1,68,0,HUC17,SnowToday_USwest_20210101_SWEsummary.txt,wy2021,2021-01-01,2021,1,1
Crater Meadows,ID,46.56,-115.29,1816.6,100,1.1,HUC17,SnowToday_USwest_20210101_SWEsummary.txt,wy2021,2021-01-01,2021,1,1
Deadwood Summit,ID,44.55,-115.56,2090.9,77,0.2,HUC17,SnowToday_USwest_20210101_SWEsummary.txt,wy2021,2021-01-01,2021,1,1
Dollarhide Summit,ID,43.6,-114.67,2566.4,80,0,HUC17,SnowToday_USwest_20210101_SWEsummary.txt,wy2021,2021-01-01,2021,1,1
Elk Butte,ID,46.84,-116.12,1734.3,100,1.1,HUC17,SnowToday_USwest_20210101_SWEsummary.txt,wy2021,2021-01-01,2021,1,1
Emigrant Summit,ID,42.36,-111.56,2252.5,67,0,HUC16,SnowToday_USwest_20210101_SWEsummary.txt,wy2021,2021-01-01,2021,1,1
Franklin Basin,ID,42.05,-111.6,2481.1,72,0,HUC16,SnowToday_USwest_20210101_SWEsummary.txt,wy2021,2021-01-01,2021,1,1
Galena,ID,43.88,-114.67,2276.9,74,0,HUC17,SnowToday_USwest_20210101_SWEsummary.txt,wy2021,2021-01-01,2021,1,1
Galena Summit,ID,43.87,-114.71,2676.1,65,0,HUC17,SnowToday_USwest_20210101_SWEsummary.txt,wy2021,2021-01-01,2021,1,1
Garfield R.S.,ID,43.61,-113.93,1999.5,56,-0.2,HUC17,SnowToday_USwest_20210101_SWEsummary.txt,wy2021,2021-01-01,2021,1,1
Giveout,ID,42.41,-111.17,2112.3,86,0,HUC16,SnowToday_USwest_20210101_SWEsummary.txt,wy2021,2021-01-01,2021,1,1
Hemlock Butte,ID,46.48,-115.63,1770.9,86,1,HUC17,SnowToday_USwest_20210101_SWEsummary.txt,wy2021,2021-01-01,2021,1,1
Hilts Creek,ID,44.02,-113.47,2438.4,49,0,HUC17,SnowToday_USwest_20210101_SWEsummary.txt,wy2021,2021-01-01,2021,1,1
Howell Canyon,ID,42.32,-113.62,2432.3,82,0,HUC17,SnowToday_USwest_20210101_SWEsummary.txt,wy2021,2021-01-01,2021,1,1
Humboldt Gulch,ID,47.53,-115.78,1295.4,142,0,HUC17,SnowToday_USwest_20210101_SWEsummary.txt,wy2021,2021-01-01,2021,1,1
Hyndman,ID,43.71,-114.16,2322.6,75,0,HUC17,SnowToday_USwest_20210101_SWEsummary.txt,wy2021,2021-01-01,2021,1,1
Island Park,ID,44.42,-111.39,1917.2,85,0,HUC17,SnowToday_USwest_20210101_SWEsummary.txt,wy2021,2021-01-01,2021,1,1
Jackson Peak,ID,44.05,-115.44,2154.9,94,0,HUC17,SnowToday_USwest_20210101_SWEsummary.txt,wy2021,2021-01-01,2021,1,1
Lolo Pass,ID,46.63,-114.58,1597.2,93,0.3,HUC17,SnowToday_USwest_20210101_SWEsummary.txt,wy2021,2021-01-01,2021,1,1
Lookout,ID,47.46,-115.7,1581.9,87,0,HUC17,SnowToday_USwest_20210101_SWEsummary.txt,wy2021,2021-01-01,2021,1,1
Lost Lake,ID,47.08,-115.96,1862.3,95,0.7,HUC17,SnowToday_USwest_20210101_SWEsummary.txt,wy2021,2021-01-01,2021,1,1
Lost-Wood Divide,ID,43.82,-114.26,2407.9,64,-0.2,HUC17,SnowToday_USwest_20210101_SWEsummary.txt,wy2021,2021-01-01,2021,1,1
Magic Mountain,ID,42.18,-114.29,2097,70,0,HUC17,SnowToday_USwest_20210101_SWEsummary.txt,wy2021,2021-01-01,2021,1,1
Meadow Lake,ID,44.44,-113.32,2788.9,73,0,HUC17,SnowToday_USwest_20210101_SWEsummary.txt,wy2021,2021-01-01,2021,1,1
Mica Creek,ID,47.15,-116.27,1374.6,102,0.8,HUC17,SnowToday_USwest_20210101_SWEsummary.txt,wy2021,2021-01-01,2021,1,1
Mill Creek Summit,ID,44.47,-114.49,2682.2,67,0,HUC17,SnowToday_USwest_20210101_SWEsummary.txt,wy2021,2021-01-01,2021,1,1
Moonshine,ID,44.41,-113.4,2267.7,85,0,HUC17,SnowToday_USwest_20210101_SWEsummary.txt,wy2021,2021-01-01,2021,1,1
Moose Creek,ID,45.67,-113.95,1889.8,97,0.3,HUC17,SnowToday_USwest_20210101_SWEsummary.txt,wy2021,2021-01-01,2021,1,1
Mores Creek Summit,ID,43.93,-115.67,1859.3,99,0,HUC17,SnowToday_USwest_20210101_SWEsummary.txt,wy2021,2021-01-01,2021,1,1
Morgan Creek,ID,44.84,-114.27,2316.5,72,0,HUC17,SnowToday_USwest_20210101_SWEsummary.txt,wy2021,2021-01-01,2021,1,1
Mosquito Ridge,ID,48.06,-116.23,1603.2,91,0.8,HUC17,SnowToday_USwest_20210101_SWEsummary.txt,wy2021,2021-01-01,2021,1,1
Mountain Meadows,ID,45.7,-115.23,1926.3,86,0.5,HUC17,SnowToday_USwest_20210101_SWEsummary.txt,wy2021,2021-01-01,2021,1,1
Mud Flat,ID,42.6,-116.56,1746.5,51,0,HUC17,SnowToday_USwest_20210101_SWEsummary.txt,wy2021,2021-01-01,2021,1,1
Oxford Spring,ID,42.26,-112.13,2054.4,60,0,HUC16,SnowToday_USwest_20210101_SWEsummary.txt,wy2021,2021-01-01,2021,1,1
Pine Creek Pass,ID,43.57,-111.21,2048.3,109,0,HUC17,SnowToday_USwest_20210101_SWEsummary.txt,wy2021,2021-01-01,2021,1,1
Prairie,ID,43.51,-115.57,1463,100,0,HUC17,SnowToday_USwest_20210101_SWEsummary.txt,wy2021,2021-01-01,2021,1,1
Savage Pass,ID,46.47,-114.63,1886.7,93,0.2,HUC17,SnowToday_USwest_20210101_SWEsummary.txt,wy2021,2021-01-01,2021,1,1
Schwartz Lake,ID,44.85,-113.84,2630.4,74,-0.2,HUC17,SnowToday_USwest_20210101_SWEsummary.txt,wy2021,2021-01-01,2021,1,1
Schweitzer Basin,ID,48.37,-116.64,1856.2,80,0.6,HUC17,SnowToday_USwest_20210101_SWEsummary.txt,wy2021,2021-01-01,2021,1,1
Secesh Summit,ID,45.19,-115.97,1993.4,80,0.2,HUC17,SnowToday_USwest_20210101_SWEsummary.txt,wy2021,2021-01-01,2021,1,1
Sedgwick Peak,ID,42.52,-111.96,2392.7,58,0.2,HUC17,SnowToday_USwest_20210101_SWEsummary.txt,wy2021,2021-01-01,2021,1,1
Shanghi Summit,ID,46.57,-115.74,1402.1,122,0.9,HUC17,SnowToday_USwest_20210101_SWEsummary.txt,wy2021,2021-01-01,2021,1,1
Sheep Mtn.,ID,43.21,-111.69,2026.9,101,0,HUC17,SnowToday_USwest_20210101_SWEsummary.txt,wy2021,2021-01-01,2021,1,1
Sherwin,ID,46.95,-116.34,975.4,128,0.8,HUC17,SnowToday_USwest_20210101_SWEsummary.txt,wy2021,2021-01-01,2021,1,1
Slug Creek Divide,ID,42.56,-111.3,2202.2,100,0,HUC17,SnowToday_USwest_20210101_SWEsummary.txt,wy2021,2021-01-01,2021,1,1
Soldier R.S.,ID,43.48,-114.83,1749.6,98,0,HUC17,SnowToday_USwest_20210101_SWEsummary.txt,wy2021,2021-01-01,2021,1,1
Somsen Ranch,ID,42.95,-111.36,2072.6,96,0,HUC17,SnowToday_USwest_20210101_SWEsummary.txt,wy2021,2021-01-01,2021,1,1
South Mtn.,ID,42.76,-116.9,1981.2,80,0,HUC17,SnowToday_USwest_20210101_SWEsummary.txt,wy2021,2021-01-01,2021,1,1
Squaw Flat,ID,44.77,-116.25,1902,73,0,HUC17,SnowToday_USwest_20210101_SWEsummary.txt,wy2021,2021-01-01,2021,1,1
Stickney Mill,ID,43.86,-114.21,2264.7,69,0,HUC17,SnowToday_USwest_20210101_SWEsummary.txt,wy2021,2021-01-01,2021,1,1
Sunset,ID,47.56,-115.82,1688.6,85,0.2,HUC17,SnowToday_USwest_20210101_SWEsummary.txt,wy2021,2021-01-01,2021,1,1
Swede Peak,ID,43.63,-113.97,2328.7,48,0,HUC17,SnowToday_USwest_20210101_SWEsummary.txt,wy2021,2021-01-01,2021,1,1
Trinity Mtn.,ID,43.63,-115.44,2368.3,80,0,HUC17,SnowToday_USwest_20210101_SWEsummary.txt,wy2021,2021-01-01,2021,1,1
Vienna Mine,ID,43.8,-114.85,2731,75,0,HUC17,SnowToday_USwest_20210101_SWEsummary.txt,wy2021,2021-01-01,2021,1,1
West Branch,ID,45.07,-116.45,1694.7,100,0.2,HUC17,SnowToday_USwest_20210101_SWEsummary.txt,wy2021,2021-01-01,2021,1,1
White Elephant,ID,44.53,-111.41,2350,67,0,HUC17,SnowToday_USwest_20210101_SWEsummary.txt,wy2021,2021-01-01,2021,1,1
Wildhorse Divide,ID,42.76,-112.48,1978.2,63,0,HUC17,SnowToday_USwest_20210101_SWEsummary.txt,wy2021,2021-01-01,2021,1,1
Wilson Creek,ID,42.01,-115,2170.2,56,0.2,HUC17,SnowToday_USwest_20210101_SWEsummary.txt,wy2021,2021-01-01,2021,1,1
Albro Lake,MT,45.6,-111.96,2529.8,75,0,HUC10,SnowToday_USwest_20210101_SWEsummary.txt,wy2021,2021-01-01,2021,1,1
Badger Pass,MT,48.13,-113.02,2103.1,134,0.2,HUC17,SnowToday_USwest_20210101_SWEsummary.txt,wy2021,2021-01-01,2021,1,1
Banfield Mountain,MT,48.57,-115.45,1706.9,98,0,HUC17,SnowToday_USwest_20210101_SWEsummary.txt,wy2021,2021-01-01,2021,1,1
Barker Lakes,MT,46.1,-113.13,2514.6,90,0,HUC17,SnowToday_USwest_20210101_SWEsummary.txt,wy2021,2021-01-01,2021,1,1
Basin Creek,MT,45.8,-112.52,2188.5,62,0,HUC17,SnowToday_USwest_20210101_SWEsummary.txt,wy2021,2021-01-01,2021,1,1
Beagle Springs,MT,44.47,-112.98,2697.5,60,0,HUC10,SnowToday_USwest_20210101_SWEsummary.txt,wy2021,2021-01-01,2021,1,1
Beaver Creek,MT,44.95,-111.36,2392.7,55,0,HUC10,SnowToday_USwest_20210101_SWEsummary.txt,wy2021,2021-01-01,2021,1,1
Bisson Creek,MT,47.68,-114,1499.6,106,0,HUC17,SnowToday_USwest_20210101_SWEsummary.txt,wy2021,2021-01-01,2021,1,1
Black Bear,MT,44.51,-111.13,2490.2,72,0,HUC10,SnowToday_USwest_20210101_SWEsummary.txt,wy2021,2021-01-01,2021,1,1
Black Pine,MT,46.41,-113.43,2197.6,83,0,HUC17,SnowToday_USwest_20210101_SWEsummary.txt,wy2021,2021-01-01,2021,1,1
Bloody Dick,MT,45.17,-113.5,2316.5,76,0,HUC10,SnowToday_USwest_20210101_SWEsummary.txt,wy2021,2021-01-01,2021,1,1
Boulder Mountain,MT,46.56,-111.29,2423.2,90,0,HUC10,SnowToday_USwest_20210101_SWEsummary.txt,wy2021,2021-01-01,2021,1,1
Box Canyon,MT,45.27,-110.25,2033,68,0,HUC10,SnowToday_USwest_20210101_SWEsummary.txt,wy2021,2021-01-01,2021,1,1
Brackett Creek,MT,45.89,-110.94,2231.1,87,0,HUC10,SnowToday_USwest_20210101_SWEsummary.txt,wy2021,2021-01-01,2021,1,1
Calvert Creek,MT,45.88,-113.33,1959.9,88,0,HUC10,SnowToday_USwest_20210101_SWEsummary.txt,wy2021,2021-01-01,2021,1,1
Carrot Basin,MT,44.96,-111.29,2743.2,75,0,HUC10,SnowToday_USwest_20210101_SWEsummary.txt,wy2021,2021-01-01,2021,1,1
Clover Meadow,MT,45.02,-111.85,2621.3,69,0,HUC10,SnowToday_USwest_20210101_SWEsummary.txt,wy2021,2021-01-01,2021,1,1
Cole Creek,MT,45.19,-109.35,2392.7,91,0,HUC10,SnowToday_USwest_20210101_SWEsummary.txt,wy2021,2021-01-01,2021,1,1
Combination,MT,46.47,-113.39,1706.9,91,0,HUC17,SnowToday_USwest_20210101_SWEsummary.txt,wy2021,2021-01-01,2021,1,1
Copper Bottom,MT,47.06,-112.6,1585,92,0,HUC17,SnowToday_USwest_20210101_SWEsummary.txt,wy2021,2021-01-01,2021,1,1
Copper Camp,MT,47.08,-112.73,2118.4,99,0.4,HUC17,SnowToday_USwest_20210101_SWEsummary.txt,wy2021,2021-01-01,2021,1,1
Crystal Lake,MT,46.79,-109.51,1844,90,0,HUC10,SnowToday_USwest_20210101_SWEsummary.txt,wy2021,2021-01-01,2021,1,1
Daisy Peak,MT,46.67,-110.33,2316.5,96,0,HUC10,SnowToday_USwest_20210101_SWEsummary.txt,wy2021,2021-01-01,2021,1,1
Daly Creek,MT,46.18,-113.85,1761.7,85,0,HUC17,SnowToday_USwest_20210101_SWEsummary.txt,wy2021,2021-01-01,2021,1,1
Darkhorse Lake,MT,45.17,-113.58,2726.4,83,0,HUC10,SnowToday_USwest_20210101_SWEsummary.txt,wy2021,2021-01-01,2021,1,1
Deadman Creek,MT,46.79,-110.68,1966,94,0,HUC10,SnowToday_USwest_20210101_SWEsummary.txt,wy2021,2021-01-01,2021,1,1
Divide,MT,44.79,-112.06,2377.4,54,0,HUC10,SnowToday_USwest_20210101_SWEsummary.txt,wy2021,2021-01-01,2021,1,1
Dupuyer Creek,MT,48.06,-112.76,1752.6,86,0,HUC10,SnowToday_USwest_20210101_SWEsummary.txt,wy2021,2021-01-01,2021,1,1
Emery Creek,MT,48.43,-113.94,1325.9,111,0,HUC17,SnowToday_USwest_20210101_SWEsummary.txt,wy2021,2021-01-01,2021,1,1
Fisher Creek,MT,45.06,-109.94,2773.7,109,0,HUC10,SnowToday_USwest_20210101_SWEsummary.txt,wy2021,2021-01-01,2021,1,1
Flattop Mtn.,MT,48.8,-113.86,1920.2,119,0.6,HUC17,SnowToday_USwest_20210101_SWEsummary.txt,wy2021,2021-01-01,2021,1,1
Frohner Meadow,MT,46.44,-112.19,1975.1,100,0,HUC10,SnowToday_USwest_20210101_SWEsummary.txt,wy2021,2021-01-01,2021,1,1
Garver Creek,MT,48.98,-115.82,1295.4,95,0,HUC17,SnowToday_USwest_20210101_SWEsummary.txt,wy2021,2021-01-01,2021,1,1
Grave Creek,MT,48.91,-114.77,1310.6,103,0,HUC17,SnowToday_USwest_20210101_SWEsummary.txt,wy2021,2021-01-01,2021,1,1
Hand Creek,MT,48.31,-114.84,1534.7,100,0,HUC17,SnowToday_USwest_20210101_SWEsummary.txt,wy2021,2021-01-01,2021,1,1
Hawkins Lake,MT,48.97,-115.95,1966,100,0,HUC17,SnowToday_USwest_20210101_SWEsummary.txt,wy2021,2021-01-01,2021,1,1
Hoodoo Basin,MT,46.98,-115.03,1844,93,0.3,HUC17,SnowToday_USwest_20210101_SWEsummary.txt,wy2021,2021-01-01,2021,1,1
Kraft Creek,MT,47.43,-113.78,1447.8,94,0.2,HUC17,SnowToday_USwest_20210101_SWEsummary.txt,wy2021,2021-01-01,2021,1,1
Lakeview Ridge,MT,44.59,-111.82,2255.5,40,0,HUC10,SnowToday_USwest_20210101_SWEsummary.txt,wy2021,2021-01-01,2021,1,1
Lemhi Ridge,MT,44.99,-113.44,2468.9,74,0,HUC10,SnowToday_USwest_20210101_SWEsummary.txt,wy2021,2021-01-01,2021,1,1
Lick Creek,MT,45.5,-110.97,2090.9,63,0,HUC10,SnowToday_USwest_20210101_SWEsummary.txt,wy2021,2021-01-01,2021,1,1
Lone Mountain,MT,45.27,-111.43,2706.6,76,0,HUC10,SnowToday_USwest_20210101_SWEsummary.txt,wy2021,2021-01-01,2021,1,1
Lower Twin,MT,45.51,-111.92,2407.9,69,0,HUC10,SnowToday_USwest_20210101_SWEsummary.txt,wy2021,2021-01-01,2021,1,1
Lubrecht Flume,MT,46.88,-113.32,1426.5,100,0,HUC17,SnowToday_USwest_20210101_SWEsummary.txt,wy2021,2021-01-01,2021,1,1
Madison Plateau,MT,44.59,-111.12,2362.2,73,0,HUC10,SnowToday_USwest_20210101_SWEsummary.txt,wy2021,2021-01-01,2021,1,1
Many Glacier,MT,48.8,-113.67,1493.5,104,0,N/A,SnowToday_USwest_20210101_SWEsummary.txt,wy2021,2021-01-01,2021,1,1
Monument Peak,MT,45.22,-110.24,2697.5,111,0,HUC10,SnowToday_USwest_20210101_SWEsummary.txt,wy2021,2021-01-01,2021,1,1
Moss Peak,MT,47.68,-113.96,2066.5,110,0.2,HUC17,SnowToday_USwest_20210101_SWEsummary.txt,wy2021,2021-01-01,2021,1,1
Mount Lockhart,MT,47.92,-112.82,1950.7,121,0,HUC10,SnowToday_USwest_20210101_SWEsummary.txt,wy2021,2021-01-01,2021,1,1
Mule Creek,MT,45.41,-112.96,2529.8,94,0,HUC10,SnowToday_USwest_20210101_SWEsummary.txt,wy2021,2021-01-01,2021,1,1
N Fk Elk Creek,MT,46.87,-113.28,1905,86,0,HUC17,SnowToday_USwest_20210101_SWEsummary.txt,wy2021,2021-01-01,2021,1,1
Nevada Ridge,MT,46.84,-112.51,2139.7,107,0,HUC17,SnowToday_USwest_20210101_SWEsummary.txt,wy2021,2021-01-01,2021,1,1
Nez Perce Camp,MT,45.73,-114.48,1722.1,100,0.2,HUC17,SnowToday_USwest_20210101_SWEsummary.txt,wy2021,2021-01-01,2021,1,1
Noisy Basin,MT,48.16,-113.95,1841,101,0.5,HUC17,SnowToday_USwest_20210101_SWEsummary.txt,wy2021,2021-01-01,2021,1,1
North Fork Jocko,MT,47.27,-113.76,1929.4,98,0.5,HUC17,SnowToday_USwest_20210101_SWEsummary.txt,wy2021,2021-01-01,2021,1,1
Northeast Entrance,MT,45.01,-110.01,2240.3,68,0,HUC10,SnowToday_USwest_20210101_SWEsummary.txt,wy2021,2021-01-01,2021,1,1
Peterson Meadows,MT,46.13,-113.31,2194.6,82,0,HUC17,SnowToday_USwest_20210101_SWEsummary.txt,wy2021,2021-01-01,2021,1,1
Pickfoot Creek,MT,46.58,-111.27,2026.9,58,0,HUC10,SnowToday_USwest_20210101_SWEsummary.txt,wy2021,2021-01-01,2021,1,1
Pike Creek,MT,48.3,-113.33,1807.5,17,0,HUC10,SnowToday_USwest_20210101_SWEsummary.txt,wy2021,2021-01-01,2021,1,1
Placer Basin,MT,45.42,-110.09,2691.4,102,0,HUC10,SnowToday_USwest_20210101_SWEsummary.txt,wy2021,2021-01-01,2021,1,1
Poorman Creek,MT,48.13,-115.62,1554.5,103,0.3,HUC17,SnowToday_USwest_20210101_SWEsummary.txt,wy2021,2021-01-01,2021,1,1
Rocker Peak,MT,46.36,-112.26,2438.4,101,0,HUC10,SnowToday_USwest_20210101_SWEsummary.txt,wy2021,2021-01-01,2021,1,1
Rocky Boy,MT,48.17,-109.65,1432.6,145,0.2,HUC10,SnowToday_USwest_20210101_SWEsummary.txt,wy2021,2021-01-01,2021,1,1
S Fork Shields,MT,46.09,-110.43,2468.9,38,0,HUC10,SnowToday_USwest_20210101_SWEsummary.txt,wy2021,2021-01-01,2021,1,1
Saddle Mtn.,ID,45.69,-113.97,2420.1,97,0.2,HUC17,SnowToday_USwest_20210101_SWEsummary.txt,wy2021,2021-01-01,2021,1,1
Short Creek,MT,44.98,-111.95,2133.6,85,0,HUC10,SnowToday_USwest_20210101_SWEsummary.txt,wy2021,2021-01-01,2021,1,1
Shower Falls,MT,45.4,-110.96,2468.9,100,0,HUC10,SnowToday_USwest_20210101_SWEsummary.txt,wy2021,2021-01-01,2021,1,1
Skalkaho Summit,MT,46.24,-113.77,2209.8,92,0,HUC17,SnowToday_USwest_20210101_SWEsummary.txt,wy2021,2021-01-01,2021,1,1
Sleeping Woman,MT,47.18,-114.33,1874.5,87,0,HUC17,SnowToday_USwest_20210101_SWEsummary.txt,wy2021,2021-01-01,2021,1,1
Spur Park,MT,46.78,-110.62,2468.9,105,0.2,HUC10,SnowToday_USwest_20210101_SWEsummary.txt,wy2021,2021-01-01,2021,1,1
Stahl Peak,MT,48.91,-114.86,1837.9,107,0.2,HUC17,SnowToday_USwest_20210101_SWEsummary.txt,wy2021,2021-01-01,2021,1,1
Stuart Mountain,MT,47,-113.93,2255.5,92,0,HUC17,SnowToday_USwest_20210101_SWEsummary.txt,wy2021,2021-01-01,2021,1,1
Tepee Creek,MT,44.79,-111.71,2438.4,60,0,HUC10,SnowToday_USwest_20210101_SWEsummary.txt,wy2021,2021-01-01,2021,1,1
Tizer Basin,MT,46.35,-111.85,2097,63,0,HUC10,SnowToday_USwest_20210101_SWEsummary.txt,wy2021,2021-01-01,2021,1,1
Twelvemile Creek,MT,46.14,-114.45,1706.9,112,0.2,HUC17,SnowToday_USwest_20210101_SWEsummary.txt,wy2021,2021-01-01,2021,1,1
Twin Lakes,MT,46.14,-114.51,1950.7,88,0.3,HUC17,SnowToday_USwest_20210101_SWEsummary.txt,wy2021,2021-01-01,2021,1,1
Waldron,MT,47.92,-112.79,1706.9,99,0,HUC10,SnowToday_USwest_20210101_SWEsummary.txt,wy2021,2021-01-01,2021,1,1
Warm Springs,MT,46.27,-113.16,2377.4,108,0,HUC17,SnowToday_USwest_20210101_SWEsummary.txt,wy2021,2021-01-01,2021,1,1
West Yellowstone,MT,44.66,-111.09,2042.2,88,0,HUC10,SnowToday_USwest_20210101_SWEsummary.txt,wy2021,2021-01-01,2021,1,1
Whiskey Creek,MT,44.61,-111.15,2072.6,78,0,HUC10,SnowToday_USwest_20210101_SWEsummary.txt,wy2021,2021-01-01,2021,1,1
White Mill,MT,45.05,-109.91,2651.8,133,0,HUC10,SnowToday_USwest_20210101_SWEsummary.txt,wy2021,2021-01-01,2021,1,1
Wood Creek,MT,47.45,-112.81,1816.6,78,0,HUC10,SnowToday_USwest_20210101_SWEsummary.txt,wy2021,2021-01-01,2021,1,1
Bateman,NM,36.51,-106.32,2834.6,83,0,HUC13,SnowToday_USwest_20210101_SWEsummary.txt,wy2021,2021-01-01,2021,1,1
Chamita,NM,36.96,-106.66,2560.3,75,0,HUC13,SnowToday_USwest_20210101_SWEsummary.txt,wy2021,2021-01-01,2021,1,1
Gallegos Peak,NM,36.19,-105.56,2987,86,0,HUC13,SnowToday_USwest_20210101_SWEsummary.txt,wy2021,2021-01-01,2021,1,1
Hopewell,NM,36.72,-106.26,3048,92,0,HUC13,SnowToday_USwest_20210101_SWEsummary.txt,wy2021,2021-01-01,2021,1,1
North Costilla,NM,36.99,-105.26,3230.9,87,0,HUC13,SnowToday_USwest_20210101_SWEsummary.txt,wy2021,2021-01-01,2021,1,1
Quemazon,NM,35.92,-106.39,2895.6,41,0,HUC13,SnowToday_USwest_20210101_SWEsummary.txt,wy2021,2021-01-01,2021,1,1
Red River Pass #2,NM,36.7,-105.34,3002.3,73,0,HUC13,SnowToday_USwest_20210101_SWEsummary.txt,wy2021,2021-01-01,2021,1,1
Senorita Divide #2,NM,36,-106.83,2621.3,65,0,HUC13,SnowToday_USwest_20210101_SWEsummary.txt,wy2021,2021-01-01,2021,1,1
Silver Creek Divide,NM,33.37,-108.71,2743.2,44,0,HUC15,SnowToday_USwest_20210101_SWEsummary.txt,wy2021,2021-01-01,2021,1,1
Wesner Springs,NM,35.78,-105.54,3389.4,27,0,HUC13,SnowToday_USwest_20210101_SWEsummary.txt,wy2021,2021-01-01,2021,1,1
Bear Creek,NV,41.83,-115.45,2450.6,65,0,HUC17,SnowToday_USwest_20210101_SWEsummary.txt,wy2021,2021-01-01,2021,1,1
Berry Creek,NV,39.32,-114.62,2858.1,64,0.2,HUC16,SnowToday_USwest_20210101_SWEsummary.txt,wy2021,2021-01-01,2021,1,1
Big Bend,NV,41.76,-115.69,2102.5,73,0,HUC17,SnowToday_USwest_20210101_SWEsummary.txt,wy2021,2021-01-01,2021,1,1
Big Creek Sum,NV,39.29,-117.12,2647.2,81,0.2,HUC16,SnowToday_USwest_20210101_SWEsummary.txt,wy2021,2021-01-01,2021,1,1
Big Meadow,NV,39.45,-119.94,2510,81,0.2,HUC16,SnowToday_USwest_20210101_SWEsummary.txt,wy2021,2021-01-01,2021,1,1
Buckskin Lower,NV,41.75,-117.53,2112.3,148,0,HUC16,SnowToday_USwest_20210101_SWEsummary.txt,wy2021,2021-01-01,2021,1,1
Corral Canyon,NV,40.28,-115.54,2574,86,0,HUC16,SnowToday_USwest_20210101_SWEsummary.txt,wy2021,2021-01-01,2021,1,1
Diamond Peak,NV,39.56,-115.84,2443.6,103,0,HUC16,SnowToday_USwest_20210101_SWEsummary.txt,wy2021,2021-01-01,2021,1,1
Dorsey Basin,NV,40.89,-115.21,2408.8,63,0,HUC16,SnowToday_USwest_20210101_SWEsummary.txt,wy2021,2021-01-01,2021,1,1
Draw Creek,NV,41.66,-115.32,2234.8,78,0,HUC16,SnowToday_USwest_20210101_SWEsummary.txt,wy2021,2021-01-01,2021,1,1
Fawn Creek,NV,41.82,-116.1,2143,60,0,HUC17,SnowToday_USwest_20210101_SWEsummary.txt,wy2021,2021-01-01,2021,1,1
Granite Peak,NV,41.67,-117.57,2591.7,100,0,HUC16,SnowToday_USwest_20210101_SWEsummary.txt,wy2021,2021-01-01,2021,1,1
Green Mountain,NV,40.38,-115.53,2494.8,75,0.2,HUC16,SnowToday_USwest_20210101_SWEsummary.txt,wy2021,2021-01-01,2021,1,1
Hole-in-Mountain,NV,40.94,-115.1,2488.1,32,0,HUC16,SnowToday_USwest_20210101_SWEsummary.txt,wy2021,2021-01-01,2021,1,1
Jack Creek Upper,NV,41.55,-116.01,2248.5,47,-0.2,HUC17,SnowToday_USwest_20210101_SWEsummary.txt,wy2021,2021-01-01,2021,1,1
Lamance Creek,NV,41.52,-117.63,1949.2,61,-0.2,HUC16,SnowToday_USwest_20210101_SWEsummary.txt,wy2021,2021-01-01,2021,1,1
Lamoille #3,NV,40.64,-115.38,2453.9,70,0,HUC16,SnowToday_USwest_20210101_SWEsummary.txt,wy2021,2021-01-01,2021,1,1
Laurel Draw,NV,41.78,-116.03,2036.7,76,0,HUC17,SnowToday_USwest_20210101_SWEsummary.txt,wy2021,2021-01-01,2021,1,1
Marlette Lake,NV,39.16,-119.9,2403,90,0,HUC16,SnowToday_USwest_20210101_SWEsummary.txt,wy2021,2021-01-01,2021,1,1
Mt Rose Ski Area,NV,39.32,-119.89,2682.5,81,0,HUC16,SnowToday_USwest_20210101_SWEsummary.txt,wy2021,2021-01-01,2021,1,1
Pole Creek R.S.,NV,41.87,-115.25,2548.1,55,0,HUC17,SnowToday_USwest_20210101_SWEsummary.txt,wy2021,2021-01-01,2021,1,1
Seventysix Creek,NV,41.74,-115.47,2240.3,58,0,HUC17,SnowToday_USwest_20210101_SWEsummary.txt,wy2021,2021-01-01,2021,1,1
Ward Mountain,NV,39.13,-114.96,2792.9,31,0,HUC15,SnowToday_USwest_20210101_SWEsummary.txt,wy2021,2021-01-01,2021,1,1
Arbuckle Mtn,OR,45.19,-119.25,1758.7,87,0,HUC17,SnowToday_USwest_20210101_SWEsummary.txt,wy2021,2021-01-01,2021,1,1
Beaver Reservoir,OR,45.15,-118.22,1569.7,95,0.3,HUC17,SnowToday_USwest_20210101_SWEsummary.txt,wy2021,2021-01-01,2021,1,1
Big Red Mountain,OR,42.05,-122.85,1844,77,0,HUC17,SnowToday_USwest_20210101_SWEsummary.txt,wy2021,2021-01-01,2021,1,1
Bourne,OR,44.83,-118.19,1783.1,78,0.3,HUC17,SnowToday_USwest_20210101_SWEsummary.txt,wy2021,2021-01-01,2021,1,1
Bowman Springs,OR,45.36,-118.47,1380.7,146,0.5,HUC17,SnowToday_USwest_20210101_SWEsummary.txt,wy2021,2021-01-01,2021,1,1
Cascade Summit,OR,43.59,-122.06,1554.5,88,0,HUC17,SnowToday_USwest_20210101_SWEsummary.txt,wy2021,2021-01-01,2021,1,1
Chemult Alternate,OR,43.23,-121.81,1478.3,97,0,HUC18,SnowToday_USwest_20210101_SWEsummary.txt,wy2021,2021-01-01,2021,1,1
Clear Lake,OR,45.19,-121.69,1161.3,65,0,HUC17,SnowToday_USwest_20210101_SWEsummary.txt,wy2021,2021-01-01,2021,1,1
Cold Springs Camp,OR,42.53,-122.18,1810.5,82,0.2,HUC18,SnowToday_USwest_20210101_SWEsummary.txt,wy2021,2021-01-01,2021,1,1
County Line,OR,45.19,-118.55,1472.2,82,0.2,HUC17,SnowToday_USwest_20210101_SWEsummary.txt,wy2021,2021-01-01,2021,1,1
Diamond Lake,OR,43.19,-122.14,1609.3,106,0.4,HUC17,SnowToday_USwest_20210101_SWEsummary.txt,wy2021,2021-01-01,2021,1,1
Emigrant Springs,OR,45.56,-118.45,1158.2,38,1.1,HUC17,SnowToday_USwest_20210101_SWEsummary.txt,wy2021,2021-01-01,2021,1,1
Fish Creek,OR,42.71,-118.63,2334.8,104,0,HUC17,SnowToday_USwest_20210101_SWEsummary.txt,wy2021,2021-01-01,2021,1,1
Fourmile Lake,OR,42.44,-122.23,1819.7,85,0.3,HUC18,SnowToday_USwest_20210101_SWEsummary.txt,wy2021,2021-01-01,2021,1,1
Gold Center,OR,44.76,-118.31,1649,109,0,HUC17,SnowToday_USwest_20210101_SWEsummary.txt,wy2021,2021-01-01,2021,1,1
Greenpoint,OR,45.62,-121.7,1008.9,77,-0.3,HUC17,SnowToday_USwest_20210101_SWEsummary.txt,wy2021,2021-01-01,2021,1,1
High Ridge,OR,45.7,-118.11,1499.6,99,1.1,HUC17,SnowToday_USwest_20210101_SWEsummary.txt,wy2021,2021-01-01,2021,1,1
Hogg Pass,OR,44.42,-121.86,1460,75,0.3,HUC17,SnowToday_USwest_20210101_SWEsummary.txt,wy2021,2021-01-01,2021,1,1
Holland Meadows,OR,43.67,-122.57,1502.7,56,0.4,HUC17,SnowToday_USwest_20210101_SWEsummary.txt,wy2021,2021-01-01,2021,1,1
Irish Taylor,OR,43.8,-121.95,1688.6,101,0.4,HUC17,SnowToday_USwest_20210101_SWEsummary.txt,wy2021,2021-01-01,2021,1,1
King Mountain,OR,42.72,-123.2,1322.8,95,0,HUC17,SnowToday_USwest_20210101_SWEsummary.txt,wy2021,2021-01-01,2021,1,1
Lake Creek R.S.,OR,44.21,-118.64,1597.2,92,0.2,HUC17,SnowToday_USwest_20210101_SWEsummary.txt,wy2021,2021-01-01,2021,1,1
Lucky Strike,OR,45.27,-118.85,1514.9,96,0,HUC17,SnowToday_USwest_20210101_SWEsummary.txt,wy2021,2021-01-01,2021,1,1
Mckenzie,OR,44.21,-121.87,1453.9,99,0.9,HUC17,SnowToday_USwest_20210101_SWEsummary.txt,wy2021,2021-01-01,2021,1,1
Moss Springs,OR,45.27,-117.69,1755.6,82,0.5,HUC17,SnowToday_USwest_20210101_SWEsummary.txt,wy2021,2021-01-01,2021,1,1
Mt Hood Test Site,OR,45.32,-121.72,1636.8,99,1.2,HUC17,SnowToday_USwest_20210101_SWEsummary.txt,wy2021,2021-01-01,2021,1,1
Mt. Howard,OR,45.27,-117.17,2411,67,0,HUC17,SnowToday_USwest_20210101_SWEsummary.txt,wy2021,2021-01-01,2021,1,1
Mud Ridge,OR,45.25,-121.74,1240.5,126,0,HUC17,SnowToday_USwest_20210101_SWEsummary.txt,wy2021,2021-01-01,2021,1,1
New Crescent Lake,OR,43.51,-121.98,1496.6,97,-0.2,HUC17,SnowToday_USwest_20210101_SWEsummary.txt,wy2021,2021-01-01,2021,1,1
North Fork,OR,45.55,-122,932.7,66,-0.5,HUC17,SnowToday_USwest_20210101_SWEsummary.txt,wy2021,2021-01-01,2021,1,1
Ochoco Meadows,OR,44.43,-120.33,1655.1,114,0,HUC17,SnowToday_USwest_20210101_SWEsummary.txt,wy2021,2021-01-01,2021,1,1
Peavine Ridge,OR,45.04,-121.93,1042.4,83,0,HUC17,SnowToday_USwest_20210101_SWEsummary.txt,wy2021,2021-01-01,2021,1,1
Red Hill,OR,45.46,-121.7,1344.2,108,0.9,HUC17,SnowToday_USwest_20210101_SWEsummary.txt,wy2021,2021-01-01,2021,1,1
Roaring River,OR,43.9,-122.03,1508.8,99,0.7,HUC17,SnowToday_USwest_20210101_SWEsummary.txt,wy2021,2021-01-01,2021,1,1
Rock Springs,OR,44.01,-118.84,1612.4,100,0.2,HUC17,SnowToday_USwest_20210101_SWEsummary.txt,wy2021,2021-01-01,2021,1,1
Salt Creek Falls,OR,43.61,-122.12,1286.3,111,0.3,HUC17,SnowToday_USwest_20210101_SWEsummary.txt,wy2021,2021-01-01,2021,1,1
Santiam Jct.,OR,44.44,-121.95,1140,109,0,HUC17,SnowToday_USwest_20210101_SWEsummary.txt,wy2021,2021-01-01,2021,1,1
Sevenmile Marsh,OR,42.7,-122.14,1737.4,97,0.2,HUC18,SnowToday_USwest_20210101_SWEsummary.txt,wy2021,2021-01-01,2021,1,1
Silver Creek,OR,42.96,-121.18,1749.6,121,0,HUC17,SnowToday_USwest_20210101_SWEsummary.txt,wy2021,2021-01-01,2021,1,1
Silvies,OR,42.75,-118.69,2130.6,107,-0.3,HUC17,SnowToday_USwest_20210101_SWEsummary.txt,wy2021,2021-01-01,2021,1,1
Snow Mountain,OR,43.95,-119.54,1898.9,146,0,HUC17,SnowToday_USwest_20210101_SWEsummary.txt,wy2021,2021-01-01,2021,1,1
Summer Rim,OR,42.7,-120.8,2158,68,0.3,HUC18,SnowToday_USwest_20210101_SWEsummary.txt,wy2021,2021-01-01,2021,1,1
Taylor Butte,OR,42.69,-121.43,1533.1,61,0,HUC18,SnowToday_USwest_20210101_SWEsummary.txt,wy2021,2021-01-01,2021,1,1
Taylor Green,OR,45.08,-117.55,1749.6,99,0.5,HUC17,SnowToday_USwest_20210101_SWEsummary.txt,wy2021,2021-01-01,2021,1,1
Tipton,OR,44.66,-118.43,1569.7,113,0,HUC17,SnowToday_USwest_20210101_SWEsummary.txt,wy2021,2021-01-01,2021,1,1
Wolf Creek,OR,45.07,-118.15,1716,87,0.3,HUC17,SnowToday_USwest_20210101_SWEsummary.txt,wy2021,2021-01-01,2021,1,1
Blind Park,SD,44.11,-103.98,2100.1,61,0,HUC10,SnowToday_USwest_20210101_SWEsummary.txt,wy2021,2021-01-01,2021,1,1
North Rapid Creek,SD,44.21,-103.79,1868.4,75,0,HUC10,SnowToday_USwest_20210101_SWEsummary.txt,wy2021,2021-01-01,2021,1,1
Beaver Dams,UT,39.14,-111.56,2435.4,79,0,HUC16,SnowToday_USwest_20210101_SWEsummary.txt,wy2021,2021-01-01,2021,1,1
Beaver Divide,UT,40.61,-111.1,2523.7,57,0,HUC16,SnowToday_USwest_20210101_SWEsummary.txt,wy2021,2021-01-01,2021,1,1
Ben Lomond Peak,UT,41.38,-111.94,2343.6,66,0,HUC16,SnowToday_USwest_20210101_SWEsummary.txt,wy2021,2021-01-01,2021,1,1
Ben Lomond Trail,UT,41.38,-111.92,1820.3,63,0,HUC16,SnowToday_USwest_20210101_SWEsummary.txt,wy2021,2021-01-01,2021,1,1
Big Flat,UT,38.3,-112.36,3154.4,43,0,HUC16,SnowToday_USwest_20210101_SWEsummary.txt,wy2021,2021-01-01,2021,1,1
Black Flat-U.M. Ck,UT,38.68,-111.6,2869.4,95,0,HUC14,SnowToday_USwest_20210101_SWEsummary.txt,wy2021,2021-01-01,2021,1,1
Brighton,UT,40.6,-111.58,2671.9,53,0,HUC16,SnowToday_USwest_20210101_SWEsummary.txt,wy2021,2021-01-01,2021,1,1
Brown Duck,UT,40.58,-110.59,3223,68,0,HUC14,SnowToday_USwest_20210101_SWEsummary.txt,wy2021,2021-01-01,2021,1,1
Buck Flat,UT,39.13,-111.44,2867.9,60,0,HUC14,SnowToday_USwest_20210101_SWEsummary.txt,wy2021,2021-01-01,2021,1,1
Bug Lake,UT,41.69,-111.42,2434.4,76,0,HUC16,SnowToday_USwest_20210101_SWEsummary.txt,wy2021,2021-01-01,2021,1,1
Camp Jackson,UT,37.81,-109.49,2699.9,54,0,HUC14,SnowToday_USwest_20210101_SWEsummary.txt,wy2021,2021-01-01,2021,1,1
Castle Valley,UT,37.66,-112.74,2928.2,34,0,HUC16,SnowToday_USwest_20210101_SWEsummary.txt,wy2021,2021-01-01,2021,1,1
Chalk Creek #1,UT,40.85,-111.05,2795.3,60,0.2,HUC16,SnowToday_USwest_20210101_SWEsummary.txt,wy2021,2021-01-01,2021,1,1
Chalk Creek #2,UT,40.89,-111.07,2501.8,73,0.2,HUC16,SnowToday_USwest_20210101_SWEsummary.txt,wy2021,2021-01-01,2021,1,1
Chepeta,UT,40.77,-110.01,3200.1,73,-0.2,HUC14,SnowToday_USwest_20210101_SWEsummary.txt,wy2021,2021-01-01,2021,1,1
Clear Creek #1,UT,39.87,-111.28,2735.6,57,0,HUC16,SnowToday_USwest_20210101_SWEsummary.txt,wy2021,2021-01-01,2021,1,1
Clear Creek #2,UT,39.89,-111.25,2388.7,80,0,HUC16,SnowToday_USwest_20210101_SWEsummary.txt,wy2021,2021-01-01,2021,1,1
Currant Creek,UT,40.36,-111.09,2412.5,68,0,HUC14,SnowToday_USwest_20210101_SWEsummary.txt,wy2021,2021-01-01,2021,1,1
Daniels-Strawberry,UT,40.3,-111.26,2440.8,69,0,HUC16,SnowToday_USwest_20210101_SWEsummary.txt,wy2021,2021-01-01,2021,1,1
Dills Camp,UT,39.05,-111.47,2812.7,77,0,HUC14,SnowToday_USwest_20210101_SWEsummary.txt,wy2021,2021-01-01,2021,1,1
Donkey Reservoir,UT,38.21,-111.47,2986.7,70,0,HUC14,SnowToday_USwest_20210101_SWEsummary.txt,wy2021,2021-01-01,2021,1,1
Dry Bread Pond,UT,41.41,-111.54,2530.4,64,0,HUC16,SnowToday_USwest_20210101_SWEsummary.txt,wy2021,2021-01-01,2021,1,1
Dry Fork,UT,40.57,-112.17,2161.9,48,0,HUC16,SnowToday_USwest_20210101_SWEsummary.txt,wy2021,2021-01-01,2021,1,1
East Willow Creek,UT,39.31,-109.53,2530.4,48,0,HUC14,SnowToday_USwest_20210101_SWEsummary.txt,wy2021,2021-01-01,2021,1,1
Farmington,UT,40.97,-111.81,2408.5,56,0,HUC16,SnowToday_USwest_20210101_SWEsummary.txt,wy2021,2021-01-01,2021,1,1
Farnsworth Lake,UT,38.77,-111.68,2933.1,65,0,HUC16,SnowToday_USwest_20210101_SWEsummary.txt,wy2021,2021-01-01,2021,1,1
Five Points Lake,UT,40.72,-110.47,3335.4,78,0,HUC14,SnowToday_USwest_20210101_SWEsummary.txt,wy2021,2021-01-01,2021,1,1
Gooseberry RS,UT,38.8,-111.68,2421.3,50,0,HUC16,SnowToday_USwest_20210101_SWEsummary.txt,wy2021,2021-01-01,2021,1,1
Hardscrabble,UT,40.87,-111.72,2209.8,70,0,HUC16,SnowToday_USwest_20210101_SWEsummary.txt,wy2021,2021-01-01,2021,1,1
Hayden Fork,UT,40.8,-110.88,2782.8,73,0,HUC16,SnowToday_USwest_20210101_SWEsummary.txt,wy2021,2021-01-01,2021,1,1
Hewinta,UT,40.95,-110.48,2895.6,76,NA,HUC14,SnowToday_USwest_20210101_SWEsummary.txt,wy2021,2021-01-01,2021,1,1
Hickerson Park,UT,40.91,-109.96,2780.4,92,0,HUC14,SnowToday_USwest_20210101_SWEsummary.txt,wy2021,2021-01-01,2021,1,1
Hole-in-Rock,UT,40.92,-110.19,2794.4,65,0,HUC14,SnowToday_USwest_20210101_SWEsummary.txt,wy2021,2021-01-01,2021,1,1
Horse Ridge,UT,41.31,-111.45,2499.1,56,0,HUC16,SnowToday_USwest_20210101_SWEsummary.txt,wy2021,2021-01-01,2021,1,1
Indian Canyon,UT,39.89,-110.75,2795.3,82,0,HUC14,SnowToday_USwest_20210101_SWEsummary.txt,wy2021,2021-01-01,2021,1,1
Kimberly Mine,UT,38.48,-112.39,2774,75,0,HUC16,SnowToday_USwest_20210101_SWEsummary.txt,wy2021,2021-01-01,2021,1,1
Kings Cabin,UT,40.72,-109.54,2660.3,48,0,HUC14,SnowToday_USwest_20210101_SWEsummary.txt,wy2021,2021-01-01,2021,1,1
Kolob,UT,37.53,-113.05,2823.4,60,0,HUC15,SnowToday_USwest_20210101_SWEsummary.txt,wy2021,2021-01-01,2021,1,1
Lakefork #1,UT,40.6,-110.43,3087,66,0,HUC14,SnowToday_USwest_20210101_SWEsummary.txt,wy2021,2021-01-01,2021,1,1
Lasal Mountain,UT,38.48,-109.27,2919.4,42,0,HUC14,SnowToday_USwest_20210101_SWEsummary.txt,wy2021,2021-01-01,2021,1,1
Lily Lake,UT,40.86,-110.8,2783.7,97,0.3,HUC16,SnowToday_USwest_20210101_SWEsummary.txt,wy2021,2021-01-01,2021,1,1
Little Bear,UT,41.41,-111.83,1995.8,55,0,HUC16,SnowToday_USwest_20210101_SWEsummary.txt,wy2021,2021-01-01,2021,1,1
Lookout Peak,UT,40.84,-111.71,2487.5,71,0,HUC16,SnowToday_USwest_20210101_SWEsummary.txt,wy2021,2021-01-01,2021,1,1
Mammoth-Cottonwood,UT,39.68,-111.32,2654.5,60,0.2,HUC16,SnowToday_USwest_20210101_SWEsummary.txt,wy2021,2021-01-01,2021,1,1
Merchant Valley,UT,38.3,-112.44,2653.3,49,0,HUC16,SnowToday_USwest_20210101_SWEsummary.txt,wy2021,2021-01-01,2021,1,1
Midway Valley,UT,37.57,-112.84,2995.3,59,0,HUC16,SnowToday_USwest_20210101_SWEsummary.txt,wy2021,2021-01-01,2021,1,1
Mill-D North,UT,40.66,-111.64,2731.9,64,0,HUC16,SnowToday_USwest_20210101_SWEsummary.txt,wy2021,2021-01-01,2021,1,1
Mining Fork,UT,40.49,-112.61,2528.3,72,0,HUC16,SnowToday_USwest_20210101_SWEsummary.txt,wy2021,2021-01-01,2021,1,1
Monte Cristo,UT,41.47,-111.5,2722.5,67,0,HUC16,SnowToday_USwest_20210101_SWEsummary.txt,wy2021,2021-01-01,2021,1,1
Mosby Mtn.,UT,40.61,-109.89,2911.8,66,0,HUC14,SnowToday_USwest_20210101_SWEsummary.txt,wy2021,2021-01-01,2021,1,1
Parleys Summit,UT,40.76,-111.63,2311.9,67,0,HUC16,SnowToday_USwest_20210101_SWEsummary.txt,wy2021,2021-01-01,2021,1,1
Payson R.S.,UT,39.93,-111.63,2451.8,58,0,HUC16,SnowToday_USwest_20210101_SWEsummary.txt,wy2021,2021-01-01,2021,1,1
Pickle Keg,UT,39.01,-111.58,2749.3,73,0,HUC16,SnowToday_USwest_20210101_SWEsummary.txt,wy2021,2021-01-01,2021,1,1
Pine Creek,UT,38.88,-112.25,2662.1,50,0,HUC16,SnowToday_USwest_20210101_SWEsummary.txt,wy2021,2021-01-01,2021,1,1
Red Pine Ridge,UT,39.45,-111.27,2739.5,60,0,HUC14,SnowToday_USwest_20210101_SWEsummary.txt,wy2021,2021-01-01,2021,1,1
Rock Creek,UT,40.55,-110.69,2403.7,67,0,HUC14,SnowToday_USwest_20210101_SWEsummary.txt,wy2021,2021-01-01,2021,1,1
Rocky Basin-Settleme,UT,40.44,-112.22,2653,50,0.2,HUC16,SnowToday_USwest_20210101_SWEsummary.txt,wy2021,2021-01-01,2021,1,1
Seeley Creek,UT,39.31,-111.43,3018.7,66,0,HUC14,SnowToday_USwest_20210101_SWEsummary.txt,wy2021,2021-01-01,2021,1,1
Smith Morehouse,UT,40.79,-111.09,2325.9,44,0,HUC16,SnowToday_USwest_20210101_SWEsummary.txt,wy2021,2021-01-01,2021,1,1
Snowbird,UT,40.57,-111.66,2797.1,80,0,HUC16,SnowToday_USwest_20210101_SWEsummary.txt,wy2021,2021-01-01,2021,1,1
Steel Creek Park,UT,40.91,-110.5,3096.2,88,0,HUC14,SnowToday_USwest_20210101_SWEsummary.txt,wy2021,2021-01-01,2021,1,1
Strawberry Divide,UT,40.16,-111.21,2475.9,56,0,HUC14,SnowToday_USwest_20210101_SWEsummary.txt,wy2021,2021-01-01,2021,1,1
Thaynes Canyon,UT,40.62,-111.53,2813.3,55,0,HUC16,SnowToday_USwest_20210101_SWEsummary.txt,wy2021,2021-01-01,2021,1,1
Timpanogos Divide,UT,40.43,-111.62,2481.1,61,0,HUC16,SnowToday_USwest_20210101_SWEsummary.txt,wy2021,2021-01-01,2021,1,1
Tony Grove Lake,UT,41.9,-111.63,2582.9,71,0,HUC16,SnowToday_USwest_20210101_SWEsummary.txt,wy2021,2021-01-01,2021,1,1
Trial Lake,UT,40.68,-110.95,3045.6,68,0,HUC16,SnowToday_USwest_20210101_SWEsummary.txt,wy2021,2021-01-01,2021,1,1
Trout Creek,UT,40.74,-109.67,2901.1,59,0,HUC14,SnowToday_USwest_20210101_SWEsummary.txt,wy2021,2021-01-01,2021,1,1
Vernon Creek,UT,39.94,-112.41,2255.8,55,0,HUC16,SnowToday_USwest_20210101_SWEsummary.txt,wy2021,2021-01-01,2021,1,1
Webster Flat,UT,37.58,-112.9,2805.1,49,0,HUC16,SnowToday_USwest_20210101_SWEsummary.txt,wy2021,2021-01-01,2021,1,1
White River #1,UT,39.96,-110.99,2633.8,64,0,HUC14,SnowToday_USwest_20210101_SWEsummary.txt,wy2021,2021-01-01,2021,1,1
Widtsoe #3,UT,37.84,-111.88,2938.3,69,0,HUC16,SnowToday_USwest_20210101_SWEsummary.txt,wy2021,2021-01-01,2021,1,1
Alpine Meadows,WA,47.78,-121.7,1066.8,121,0.9,HUC17,SnowToday_USwest_20210101_SWEsummary.txt,wy2021,2021-01-01,2021,1,1
Blewett Pass,WA,47.35,-120.68,1292.4,99,0.6,HUC17,SnowToday_USwest_20210101_SWEsummary.txt,wy2021,2021-01-01,2021,1,1
Bumping Ridge,WA,46.81,-121.33,1405.1,119,0.5,HUC17,SnowToday_USwest_20210101_SWEsummary.txt,wy2021,2021-01-01,2021,1,1
Bunchgrass Mdw,WA,48.69,-117.18,1524,87,0.6,HUC17,SnowToday_USwest_20210101_SWEsummary.txt,wy2021,2021-01-01,2021,1,1
Green Lake,WA,46.55,-121.17,1804.4,105,0.2,HUC17,SnowToday_USwest_20210101_SWEsummary.txt,wy2021,2021-01-01,2021,1,1
Grouse Camp,WA,47.28,-120.49,1642.9,95,0.4,HUC17,SnowToday_USwest_20210101_SWEsummary.txt,wy2021,2021-01-01,2021,1,1
Harts Pass,WA,48.72,-120.66,1978.2,118,0.3,HUC17,SnowToday_USwest_20210101_SWEsummary.txt,wy2021,2021-01-01,2021,1,1
Lost Horse,WA,46.36,-121.08,1560.6,104,0,HUC17,SnowToday_USwest_20210101_SWEsummary.txt,wy2021,2021-01-01,2021,1,1
Lyman Lake,WA,48.2,-120.92,1822.7,86,0.6,HUC17,SnowToday_USwest_20210101_SWEsummary.txt,wy2021,2021-01-01,2021,1,1
Moses Mtn,WA,48.36,-119.08,1527,105,0,HUC17,SnowToday_USwest_20210101_SWEsummary.txt,wy2021,2021-01-01,2021,1,1
Olallie Meadows,WA,47.37,-121.44,1228.3,120,1.3,HUC17,SnowToday_USwest_20210101_SWEsummary.txt,wy2021,2021-01-01,2021,1,1
Paradise,WA,46.78,-121.75,1563.6,118,1.5,HUC17,SnowToday_USwest_20210101_SWEsummary.txt,wy2021,2021-01-01,2021,1,1
Park Creek Ridge,WA,48.44,-120.92,1402.1,100,0.4,HUC17,SnowToday_USwest_20210101_SWEsummary.txt,wy2021,2021-01-01,2021,1,1
Quartz Peak,WA,47.88,-117.09,1432.6,119,1.3,HUC17,SnowToday_USwest_20210101_SWEsummary.txt,wy2021,2021-01-01,2021,1,1
Rainy Pass,WA,48.52,-120.74,1490.5,107,0.3,HUC17,SnowToday_USwest_20210101_SWEsummary.txt,wy2021,2021-01-01,2021,1,1
Rex River,WA,47.3,-121.6,1161.3,124,0.9,HUC17,SnowToday_USwest_20210101_SWEsummary.txt,wy2021,2021-01-01,2021,1,1
Salmon Meadows,WA,48.66,-119.84,1359.4,89,0,HUC17,SnowToday_USwest_20210101_SWEsummary.txt,wy2021,2021-01-01,2021,1,1
Spencer Meadow,WA,46.18,-121.93,1036.3,110,0,HUC17,SnowToday_USwest_20210101_SWEsummary.txt,wy2021,2021-01-01,2021,1,1
Stampede Pass,WA,47.27,-121.34,1173.5,112,1.4,HUC17,SnowToday_USwest_20210101_SWEsummary.txt,wy2021,2021-01-01,2021,1,1
Stevens Pass,WA,47.75,-121.09,1204,117,0.7,HUC17,SnowToday_USwest_20210101_SWEsummary.txt,wy2021,2021-01-01,2021,1,1
Surprise Lakes,WA,46.09,-121.76,1307.6,106,0.7,HUC17,SnowToday_USwest_20210101_SWEsummary.txt,wy2021,2021-01-01,2021,1,1
Thunder Basin,WA,48.53,-120.99,1316.7,100,0,HUC17,SnowToday_USwest_20210101_SWEsummary.txt,wy2021,2021-01-01,2021,1,1
Tinkham Creek,WA,47.33,-121.47,911.4,108,0.3,HUC17,SnowToday_USwest_20210101_SWEsummary.txt,wy2021,2021-01-01,2021,1,1
Touchet,WA,46.12,-117.85,1685.5,94,1.1,HUC17,SnowToday_USwest_20210101_SWEsummary.txt,wy2021,2021-01-01,2021,1,1
Trough,WA,47.23,-120.29,1670.3,85,0,HUC17,SnowToday_USwest_20210101_SWEsummary.txt,wy2021,2021-01-01,2021,1,1
Upper Wheeler,WA,47.29,-120.37,1319.8,85,0,HUC17,SnowToday_USwest_20210101_SWEsummary.txt,wy2021,2021-01-01,2021,1,1
White Pass E.S.,WA,46.64,-121.38,1353.3,111,0.5,HUC17,SnowToday_USwest_20210101_SWEsummary.txt,wy2021,2021-01-01,2021,1,1
Bald Mtn.,WY,44.8,-107.84,2859,83,0,HUC10,SnowToday_USwest_20210101_SWEsummary.txt,wy2021,2021-01-01,2021,1,1
Base Camp,WY,43.94,-110.45,2151.9,109,0,HUC17,SnowToday_USwest_20210101_SWEsummary.txt,wy2021,2021-01-01,2021,1,1
Battle Mountain,WY,41.05,-107.27,2267.7,69,0,HUC14,SnowToday_USwest_20210101_SWEsummary.txt,wy2021,2021-01-01,2021,1,1
Bear Trap Meadow,WY,43.89,-107.06,2499.4,70,-0.2,HUC10,SnowToday_USwest_20210101_SWEsummary.txt,wy2021,2021-01-01,2021,1,1
Beartooth Lake,WY,44.94,-109.57,2852.9,111,0,HUC10,SnowToday_USwest_20210101_SWEsummary.txt,wy2021,2021-01-01,2021,1,1
Big Sandy Opening,WY,42.65,-109.26,2767.6,59,0,HUC14,SnowToday_USwest_20210101_SWEsummary.txt,wy2021,2021-01-01,2021,1,1
Blackwater,WY,44.38,-109.79,2980.9,92,0,HUC10,SnowToday_USwest_20210101_SWEsummary.txt,wy2021,2021-01-01,2021,1,1
Blind Bull Sum,WY,42.96,-110.61,2636.5,83,0,HUC14,SnowToday_USwest_20210101_SWEsummary.txt,wy2021,2021-01-01,2021,1,1
Brooklyn Lake,WY,41.36,-106.23,3121.2,87,0,HUC10,SnowToday_USwest_20210101_SWEsummary.txt,wy2021,2021-01-01,2021,1,1
Burgess Junction,WY,44.79,-107.53,2401.8,92,0,HUC10,SnowToday_USwest_20210101_SWEsummary.txt,wy2021,2021-01-01,2021,1,1
Burroughs Creek,WY,43.7,-109.67,2667,62,0,HUC10,SnowToday_USwest_20210101_SWEsummary.txt,wy2021,2021-01-01,2021,1,1
Canyon,WY,44.72,-110.51,2398.8,80,0,HUC10,SnowToday_USwest_20210101_SWEsummary.txt,wy2021,2021-01-01,2021,1,1
Casper Mtn.,WY,42.73,-106.32,2407.9,49,0,HUC10,SnowToday_USwest_20210101_SWEsummary.txt,wy2021,2021-01-01,2021,1,1
Cloud Peak Reservoir,WY,44.4,-107.06,3005.3,88,0,HUC10,SnowToday_USwest_20210101_SWEsummary.txt,wy2021,2021-01-01,2021,1,1
Cold Springs,WY,43.28,-109.45,2935.2,56,0,HUC10,SnowToday_USwest_20210101_SWEsummary.txt,wy2021,2021-01-01,2021,1,1
Cottonwood Creek,WY,42.65,-110.81,2337.8,93,0,HUC17,SnowToday_USwest_20210101_SWEsummary.txt,wy2021,2021-01-01,2021,1,1
Divide Peak,WY,41.3,-107.15,2706.6,67,0,HUC10,SnowToday_USwest_20210101_SWEsummary.txt,wy2021,2021-01-01,2021,1,1
Dome Lake,WY,44.57,-107.3,2706.6,74,-0.3,HUC10,SnowToday_USwest_20210101_SWEsummary.txt,wy2021,2021-01-01,2021,1,1
East Rim Divide,WY,43.13,-110.2,2417.1,73,0,HUC14,SnowToday_USwest_20210101_SWEsummary.txt,wy2021,2021-01-01,2021,1,1
Elkhart Park G.S.,WY,43.01,-109.76,2865.1,64,0,HUC14,SnowToday_USwest_20210101_SWEsummary.txt,wy2021,2021-01-01,2021,1,1
Evening Star,WY,44.65,-109.78,2804.2,118,0,HUC10,SnowToday_USwest_20210101_SWEsummary.txt,wy2021,2021-01-01,2021,1,1
Granite Creek,WY,43.34,-110.43,2063.5,83,0,HUC17,SnowToday_USwest_20210101_SWEsummary.txt,wy2021,2021-01-01,2021,1,1
Grassy Lake,WY,44.13,-110.83,2214.4,94,0,HUC17,SnowToday_USwest_20210101_SWEsummary.txt,wy2021,2021-01-01,2021,1,1
Grave Springs,WY,43.47,-107.24,2606,51,0,HUC10,SnowToday_USwest_20210101_SWEsummary.txt,wy2021,2021-01-01,2021,1,1
Gros Ventre Summit,WY,43.39,-110.13,2667,57,-0.3,HUC17,SnowToday_USwest_20210101_SWEsummary.txt,wy2021,2021-01-01,2021,1,1
Hams Fork,WY,42.15,-110.68,2389.6,98,0,HUC14,SnowToday_USwest_20210101_SWEsummary.txt,wy2021,2021-01-01,2021,1,1
Hansen Sawmill,WY,44.26,-106.98,2548.1,92,-0.2,HUC10,SnowToday_USwest_20210101_SWEsummary.txt,wy2021,2021-01-01,2021,1,1
Indian Creek,WY,42.3,-110.68,2872.7,76,0,HUC14,SnowToday_USwest_20210101_SWEsummary.txt,wy2021,2021-01-01,2021,1,1
Kelley R.S.,WY,42.27,-110.8,2493.3,88,0,HUC14,SnowToday_USwest_20210101_SWEsummary.txt,wy2021,2021-01-01,2021,1,1
Kendall R.S.,WY,43.25,-110.02,2359.2,78,0,HUC14,SnowToday_USwest_20210101_SWEsummary.txt,wy2021,2021-01-01,2021,1,1
Kirwin,WY,43.86,-109.32,2910.8,90,-0.2,HUC10,SnowToday_USwest_20210101_SWEsummary.txt,wy2021,2021-01-01,2021,1,1
Laprele Creek,WY,42.44,-105.86,2552.7,49,0,HUC10,SnowToday_USwest_20210101_SWEsummary.txt,wy2021,2021-01-01,2021,1,1
Lewis Lake Divide,WY,44.21,-110.67,2392.7,84,0,HUC17,SnowToday_USwest_20210101_SWEsummary.txt,wy2021,2021-01-01,2021,1,1
Little Warm,WY,43.5,-109.75,2856,94,0,HUC10,SnowToday_USwest_20210101_SWEsummary.txt,wy2021,2021-01-01,2021,1,1
Loomis Park,WY,43.17,-110.14,2511.6,68,0,HUC14,SnowToday_USwest_20210101_SWEsummary.txt,wy2021,2021-01-01,2021,1,1
Marquette,WY,44.3,-109.24,2670,46,0,HUC10,SnowToday_USwest_20210101_SWEsummary.txt,wy2021,2021-01-01,2021,1,1
Middle Powder,WY,43.63,-107.18,2365.2,52,0,HUC10,SnowToday_USwest_20210101_SWEsummary.txt,wy2021,2021-01-01,2021,1,1
New Fork Lake,WY,43.11,-109.95,2542,73,-0.2,HUC14,SnowToday_USwest_20210101_SWEsummary.txt,wy2021,2021-01-01,2021,1,1
North French Creek,WY,41.33,-106.38,3087.6,83,0,HUC10,SnowToday_USwest_20210101_SWEsummary.txt,wy2021,2021-01-01,2021,1,1
Old Battle,WY,41.15,-106.97,3048,87,0,HUC10,SnowToday_USwest_20210101_SWEsummary.txt,wy2021,2021-01-01,2021,1,1
Owl Creek,WY,43.66,-109.01,2735.6,58,0,HUC10,SnowToday_USwest_20210101_SWEsummary.txt,wy2021,2021-01-01,2021,1,1
Parker Peak,WY,44.73,-109.91,2865.1,101,0,HUC10,SnowToday_USwest_20210101_SWEsummary.txt,wy2021,2021-01-01,2021,1,1
Phillips Bench,WY,43.52,-110.91,2499.4,88,0,HUC17,SnowToday_USwest_20210101_SWEsummary.txt,wy2021,2021-01-01,2021,1,1
Powder River Pass,WY,44.16,-107.13,2889.5,89,0,HUC10,SnowToday_USwest_20210101_SWEsummary.txt,wy2021,2021-01-01,2021,1,1
Reno Hill,WY,42.57,-106.09,2560.3,56,0,HUC10,SnowToday_USwest_20210101_SWEsummary.txt,wy2021,2021-01-01,2021,1,1
Salt River Summit,WY,42.51,-110.91,2328.7,84,0,HUC17,SnowToday_USwest_20210101_SWEsummary.txt,wy2021,2021-01-01,2021,1,1
Sand Lake,WY,41.46,-106.28,3063.2,93,0,HUC10,SnowToday_USwest_20210101_SWEsummary.txt,wy2021,2021-01-01,2021,1,1
Sandstone RS,WY,41.11,-107.17,2484.1,110,0.4,HUC14,SnowToday_USwest_20210101_SWEsummary.txt,wy2021,2021-01-01,2021,1,1
Shell Creek,WY,44.5,-107.43,2920,86,0,HUC10,SnowToday_USwest_20210101_SWEsummary.txt,wy2021,2021-01-01,2021,1,1
Snake River Station,WY,44.13,-110.67,2109.2,93,0,HUC17,SnowToday_USwest_20210101_SWEsummary.txt,wy2021,2021-01-01,2021,1,1
Snider Basin,WY,42.49,-110.53,2456.7,78,-0.4,HUC14,SnowToday_USwest_20210101_SWEsummary.txt,wy2021,2021-01-01,2021,1,1
South Brush Creek,WY,41.33,-106.5,2572.5,87,0,HUC10,SnowToday_USwest_20210101_SWEsummary.txt,wy2021,2021-01-01,2021,1,1
South Pass,WY,42.57,-108.84,2755.4,74,0,HUC10,SnowToday_USwest_20210101_SWEsummary.txt,wy2021,2021-01-01,2021,1,1
Spring Creek Divide,WY,42.53,-110.66,2743.2,79,0,HUC14,SnowToday_USwest_20210101_SWEsummary.txt,wy2021,2021-01-01,2021,1,1
Sucker Creek,WY,44.72,-107.4,2706.6,108,-0.2,HUC10,SnowToday_USwest_20210101_SWEsummary.txt,wy2021,2021-01-01,2021,1,1
Sylvan Lake,WY,44.48,-110.16,2566.4,85,0,HUC10,SnowToday_USwest_20210101_SWEsummary.txt,wy2021,2021-01-01,2021,1,1
Sylvan Road,WY,44.48,-110.04,2170.2,82,0,HUC10,SnowToday_USwest_20210101_SWEsummary.txt,wy2021,2021-01-01,2021,1,1
Thumb Divide,WY,44.37,-110.58,2432.3,95,0,HUC10,SnowToday_USwest_20210101_SWEsummary.txt,wy2021,2021-01-01,2021,1,1
Timber Creek,WY,44.03,-109.18,2423.2,51,0,HUC10,SnowToday_USwest_20210101_SWEsummary.txt,wy2021,2021-01-01,2021,1,1
Togwotee Pass,WY,43.75,-110.06,2920,92,0,HUC10,SnowToday_USwest_20210101_SWEsummary.txt,wy2021,2021-01-01,2021,1,1
Townsend Creek,WY,42.7,-108.9,2651.8,55,-0.2,HUC10,SnowToday_USwest_20210101_SWEsummary.txt,wy2021,2021-01-01,2021,1,1
Triple Peak,WY,42.76,-110.59,2590.8,98,0,HUC14,SnowToday_USwest_20210101_SWEsummary.txt,wy2021,2021-01-01,2021,1,1
Two Ocean Plateau,WY,44.15,-110.22,2816.4,89,0,HUC17,SnowToday_USwest_20210101_SWEsummary.txt,wy2021,2021-01-01,2021,1,1
Webber Springs,WY,41.16,-106.93,2819.4,88,0,HUC10,SnowToday_USwest_20210101_SWEsummary.txt,wy2021,2021-01-01,2021,1,1
Whiskey Park,CO,41,-106.91,2728,94,0,HUC14,SnowToday_USwest_20210101_SWEsummary.txt,wy2021,2021-01-01,2021,1,1
Willow Creek,WY,42.82,-110.84,2462.8,79,0,HUC17,SnowToday_USwest_20210101_SWEsummary.txt,wy2021,2021-01-01,2021,1,1
Windy Peak,WY,42.28,-105.58,2407.9,37,0,HUC10,SnowToday_USwest_20210101_SWEsummary.txt,wy2021,2021-01-01,2021,1,1
Wolverine,WY,44.8,-109.66,2331.7,75,0,HUC10,SnowToday_USwest_20210101_SWEsummary.txt,wy2021,2021-01-01,2021,1,1
Younts Peak,WY,43.93,-109.82,2545.1,87,-0.3,HUC10,SnowToday_USwest_20210101_SWEsummary.txt,wy2021,2021-01-01,2021,1,1
ADIN MOUNTAIN,CA,41.237,-120.792,1889.8,109,0,HUC18,SnowToday_USwest_20210101_SWEsummary.txt,wy2021,2021-01-01,2021,1,1
ALPHA (SMUD),CA,38.8042,-120.2156,2316.5,94,0,HUC18,SnowToday_USwest_20210101_SWEsummary.txt,wy2021,2021-01-01,2021,1,1
BIG FLAT,CA,41.08,-122.942,1554.5,93,0,HUC18,SnowToday_USwest_20210101_SWEsummary.txt,wy2021,2021-01-01,2021,1,1
BIG MEADOWS (DWR),CA,36.7154,-118.8434,2316.5,39,0,HUC18,SnowToday_USwest_20210101_SWEsummary.txt,wy2021,2021-01-01,2021,1,1
BUCKS LAKE,CA,39.85,-121.242,1752.6,36,0,HUC18,SnowToday_USwest_20210101_SWEsummary.txt,wy2021,2021-01-01,2021,1,1
BLOODS CREEK,CA,38.45,-120.033,2194.6,65,0,HUC18,SnowToday_USwest_20210101_SWEsummary.txt,wy2021,2021-01-01,2021,1,1
BLUE LAKES,CA,38.613,-119.931,2438.4,77,0,HUC18,SnowToday_USwest_20210101_SWEsummary.txt,wy2021,2021-01-01,2021,1,1
BLACK SPRINGS,CA,38.375,-120.192,1981.2,74,0,HUC18,SnowToday_USwest_20210101_SWEsummary.txt,wy2021,2021-01-01,2021,1,1
BIG MEADOWS (SCS),NV,39.458,-119.946,2651.8,79,0,HUC16,SnowToday_USwest_20210101_SWEsummary.txt,wy2021,2021-01-01,2021,1,1
BONANZA KING,CA,41.083,-122.628,1966,30,0,HUC18,SnowToday_USwest_20210101_SWEsummary.txt,wy2021,2021-01-01,2021,1,1
CAPLES LAKE,CA,38.71,-120.042,2438.4,80,0,HUC18,SnowToday_USwest_20210101_SWEsummary.txt,wy2021,2021-01-01,2021,1,1
CEDAR PASS,CA,41.583,-120.303,2164.1,87,0,HUC18,SnowToday_USwest_20210101_SWEsummary.txt,wy2021,2021-01-01,2021,1,1
CHILKOOT MEADOW,CA,37.41,-119.49,2179.3,54,0,HUC18,SnowToday_USwest_20210101_SWEsummary.txt,wy2021,2021-01-01,2021,1,1
CHAGOOPA PLATEAU,CA,36.4971,-118.4467,3139.4,46,0,HUC18,SnowToday_USwest_20210101_SWEsummary.txt,wy2021,2021-01-01,2021,1,1
CHARLOTTE LAKE,CA,36.7777,-118.4266,3169.9,35,0,HUC18,SnowToday_USwest_20210101_SWEsummary.txt,wy2021,2021-01-01,2021,1,1
CENT SIERRA SNOW LAB,CA,39.325,-120.367,2103.1,89,0,HUC18,SnowToday_USwest_20210101_SWEsummary.txt,wy2021,2021-01-01,2021,1,1
CASA VIEJA MEADOWS,CA,36.1984,-118.2716,2529.8,39,0,HUC18,SnowToday_USwest_20210101_SWEsummary.txt,wy2021,2021-01-01,2021,1,1
COTTONWOOD LAKES,CA,36.4838,-118.1775,3093.7,49,0,HUC18,SnowToday_USwest_20210101_SWEsummary.txt,wy2021,2021-01-01,2021,1,1
DANA MEADOWS,CA,37.897,-119.257,2987,63,0,HUC18,SnowToday_USwest_20210101_SWEsummary.txt,wy2021,2021-01-01,2021,1,1
DEADMAN CREEK,CA,38.3316,-119.6541,2819.4,59,0,HUC18,SnowToday_USwest_20210101_SWEsummary.txt,wy2021,2021-01-01,2021,1,1
DISMAL SWAMP,CA,41.993,-120.165,2148.8,86,0,HUC17,SnowToday_USwest_20210101_SWEsummary.txt,wy2021,2021-01-01,2021,1,1
EBBETTS PASS,CA,38.561,-119.808,2651.8,75,0,HUC16,SnowToday_USwest_20210101_SWEsummary.txt,wy2021,2021-01-01,2021,1,1
ECHO PEAK 5,CA,38.849,-120.079,2377.4,90,0,HUC16,SnowToday_USwest_20210101_SWEsummary.txt,wy2021,2021-01-01,2021,1,1
FALLEN LEAF LAKE,CA,38.932,-120.056,1905,149,0,HUC16,SnowToday_USwest_20210101_SWEsummary.txt,wy2021,2021-01-01,2021,1,1
FOUR TREES,CA,39.8124,-121.3225,1569.7,72,0.2,HUC18,SnowToday_USwest_20210101_SWEsummary.txt,wy2021,2021-01-01,2021,1,1
FORNI RIDGE,CA,38.805,-120.213,2316.5,99,0,HUC18,SnowToday_USwest_20210101_SWEsummary.txt,wy2021,2021-01-01,2021,1,1
GEM PASS,CA,37.78,-119.17,3276.6,54,0,HUC18,SnowToday_USwest_20210101_SWEsummary.txt,wy2021,2021-01-01,2021,1,1
GIN FLAT,CA,37.767,-119.773,2148.8,64,0,HUC18,SnowToday_USwest_20210101_SWEsummary.txt,wy2021,2021-01-01,2021,1,1
GREEK STORE,CA,39.075,-120.558,1706.9,63,0.2,HUC18,SnowToday_USwest_20210101_SWEsummary.txt,wy2021,2021-01-01,2021,1,1
GIANELLI MEADOW,CA,38.2043,-119.8932,2560.3,59,0.2,HUC18,SnowToday_USwest_20210101_SWEsummary.txt,wy2021,2021-01-01,2021,1,1
GOLD LAKE,CA,39.6748,-120.6172,2057.4,92,0,HUC18,SnowToday_USwest_20210101_SWEsummary.txt,wy2021,2021-01-01,2021,1,1
GREEN MOUNTAIN,CA,37.555,-119.238,2407.9,45,0,HUC18,SnowToday_USwest_20210101_SWEsummary.txt,wy2021,2021-01-01,2021,1,1
GRAVEYARD MEADOW,CA,37.465,-119.29,2103.1,35,0,HUC18,SnowToday_USwest_20210101_SWEsummary.txt,wy2021,2021-01-01,2021,1,1
GRIZZLY RIDGE,CA,39.917,-120.645,2103.1,104,0,HUC18,SnowToday_USwest_20210101_SWEsummary.txt,wy2021,2021-01-01,2021,1,1
HAGANS MEADOW,CA,38.853,-119.94,2438.4,115,0,HUC16,SnowToday_USwest_20210101_SWEsummary.txt,wy2021,2021-01-01,2021,1,1
HIGHLAND MEADOW,CA,38.4873,-119.8058,2651.8,67,0,HUC18,SnowToday_USwest_20210101_SWEsummary.txt,wy2021,2021-01-01,2021,1,1
HIGHLAND LAKES,CA,41.093,-122.483,1837.9,54,0,HUC18,SnowToday_USwest_20210101_SWEsummary.txt,wy2021,2021-01-01,2021,1,1
HUMBUG,CA,40.115,-121.368,1981.2,77,0.2,HUC18,SnowToday_USwest_20210101_SWEsummary.txt,wy2021,2021-01-01,2021,1,1
HUNTINGTON LAKE (USBR),CA,37.228,-119.221,2133.6,64,0,HUC18,SnowToday_USwest_20210101_SWEsummary.txt,wy2021,2021-01-01,2021,1,1
HORSE MEADOW,CA,38.158,-119.662,2560.3,59,0,HUC18,SnowToday_USwest_20210101_SWEsummary.txt,wy2021,2021-01-01,2021,1,1
HEAVENLY VALLEY,CA,38.929,-119.917,2682.2,94,0,HUC16,SnowToday_USwest_20210101_SWEsummary.txt,wy2021,2021-01-01,2021,1,1
HUYSINK,CA,39.282,-120.527,2011.7,91,0,HUC18,SnowToday_USwest_20210101_SWEsummary.txt,wy2021,2021-01-01,2021,1,1
INDEPENDENCE CAMP,CA,39.4526,-120.2986,2133.6,100,-0.3,HUC16,SnowToday_USwest_20210101_SWEsummary.txt,wy2021,2021-01-01,2021,1,1
INDEPENDENCE LAKE (SCS),CA,39.435,-120.322,2575.6,71,0,HUC16,SnowToday_USwest_20210101_SWEsummary.txt,wy2021,2021-01-01,2021,1,1
INDEPENDENCE CREEK,CA,39.494,-120.293,1981.2,70,0,HUC16,SnowToday_USwest_20210101_SWEsummary.txt,wy2021,2021-01-01,2021,1,1
LOWER KIBBIE RIDGE,CA,38.032,-119.877,2042.2,68,0,HUC18,SnowToday_USwest_20210101_SWEsummary.txt,wy2021,2021-01-01,2021,1,1
KAISER POINT,CA,37.3,-119.1,2804.2,43,0,HUC18,SnowToday_USwest_20210101_SWEsummary.txt,wy2021,2021-01-01,2021,1,1
KETTLE ROCK,CA,40.14,-120.715,2225,102,0,HUC18,SnowToday_USwest_20210101_SWEsummary.txt,wy2021,2021-01-01,2021,1,1
LOBDELL LAKE,CA,38.44,-119.377,2804.2,38,-0.2,HUC16,SnowToday_USwest_20210101_SWEsummary.txt,wy2021,2021-01-01,2021,1,1
LEAVITT MEADOWS,CA,38.305,-119.552,2194.6,86,0,HUC16,SnowToday_USwest_20210101_SWEsummary.txt,wy2021,2021-01-01,2021,1,1
LEAVITT LAKE,CA,38.282,-119.621,2926.1,56,-0.2,HUC16,SnowToday_USwest_20210101_SWEsummary.txt,wy2021,2021-01-01,2021,1,1
MIDDLE BOULDER 3,CA,41.225,-122.811,1889.8,62,0,HUC18,SnowToday_USwest_20210101_SWEsummary.txt,wy2021,2021-01-01,2021,1,1
MEDICINE LAKE,CA,41.5869,-121.6131,2042.2,83,0,HUC18,SnowToday_USwest_20210101_SWEsummary.txt,wy2021,2021-01-01,2021,1,1
MAMMOTH PASS (USBR),CA,37.61,-119.033,2834.6,53,0,HUC18,SnowToday_USwest_20210101_SWEsummary.txt,wy2021,2021-01-01,2021,1,1
MONITOR PASS,CA,38.67,-119.615,2545.1,93,0,HUC16,SnowToday_USwest_20210101_SWEsummary.txt,wy2021,2021-01-01,2021,1,1
MARLETTE LAKE,NV,39.173,-119.905,2438.4,80,0,HUC16,SnowToday_USwest_20210101_SWEsummary.txt,wy2021,2021-01-01,2021,1,1
MOUNT ROSE SKI AREA,NV,39.326,-119.902,2712.7,57,0,HUC16,SnowToday_USwest_20210101_SWEsummary.txt,wy2021,2021-01-01,2021,1,1
MITCHELL MEADOW,CA,36.737,-118.712,3017.5,52,0,HUC18,SnowToday_USwest_20210101_SWEsummary.txt,wy2021,2021-01-01,2021,1,1
MUMBO BASIN,CA,41.197,-122.523,1722.1,56,0,HUC18,SnowToday_USwest_20210101_SWEsummary.txt,wy2021,2021-01-01,2021,1,1
PETERSON FLAT,CA,41.3023,-122.5277,2179.3,62,0,HUC18,SnowToday_USwest_20210101_SWEsummary.txt,wy2021,2021-01-01,2021,1,1
PILOT PEAK (DWR),CA,39.7859,-120.8778,2072.6,121,0,HUC18,SnowToday_USwest_20210101_SWEsummary.txt,wy2021,2021-01-01,2021,1,1
PASCOES,CA,35.967,-118.35,2788.9,21,0,HUC18,SnowToday_USwest_20210101_SWEsummary.txt,wy2021,2021-01-01,2021,1,1
POISON FLAT,CA,38.501,-119.631,2407.9,63,-0.3,HUC16,SnowToday_USwest_20210101_SWEsummary.txt,wy2021,2021-01-01,2021,1,1
POISON RIDGE,CA,37.403,-119.52,2103.1,55,0,HUC18,SnowToday_USwest_20210101_SWEsummary.txt,wy2021,2021-01-01,2021,1,1
QUAKING ASPEN,CA,36.1175,-118.5399,2194.6,27,0,HUC18,SnowToday_USwest_20210101_SWEsummary.txt,wy2021,2021-01-01,2021,1,1
ROBBS SADDLE,CA,38.9115,-120.3793,1798.3,68,0,HUC18,SnowToday_USwest_20210101_SWEsummary.txt,wy2021,2021-01-01,2021,1,1
ROCK CREEK LAKES,CA,37.4573,-118.7351,2956.6,51,0,HUC18,SnowToday_USwest_20210101_SWEsummary.txt,wy2021,2021-01-01,2021,1,1
LOWER RELIEF VALLEY,CA,38.243,-119.758,2468.9,16,-0.3,HUC18,SnowToday_USwest_20210101_SWEsummary.txt,wy2021,2021-01-01,2021,1,1
RUBICON PEAK 2,CA,39.001,-120.14,2286,85,0,HUC16,SnowToday_USwest_20210101_SWEsummary.txt,wy2021,2021-01-01,2021,1,1
RED ROCK MOUNTAIN,CA,41.023,-122.885,2042.2,51,0,HUC18,SnowToday_USwest_20210101_SWEsummary.txt,wy2021,2021-01-01,2021,1,1
RATTLESNAKE,CA,40.125,-121.043,1859.3,90,0,HUC18,SnowToday_USwest_20210101_SWEsummary.txt,wy2021,2021-01-01,2021,1,1
SCOTT MOUNTAIN,CA,41.272,-122.718,1798.3,37,0,HUC18,SnowToday_USwest_20210101_SWEsummary.txt,wy2021,2021-01-01,2021,1,1
SAND FLAT,CA,41.3504,-122.2464,2057.4,51,0,HUC18,SnowToday_USwest_20210101_SWEsummary.txt,wy2021,2021-01-01,2021,1,1
SHIMMY LAKE,CA,41.008,-122.8,1950.7,23,0,HUC18,SnowToday_USwest_20210101_SWEsummary.txt,wy2021,2021-01-01,2021,1,1
SILVER LAKE,CA,38.678,-120.118,2164.1,93,0,HUC18,SnowToday_USwest_20210101_SWEsummary.txt,wy2021,2021-01-01,2021,1,1
SLIDE CANYON,CA,38.092,-119.43,2804.2,58,0,HUC18,SnowToday_USwest_20210101_SWEsummary.txt,wy2021,2021-01-01,2021,1,1
SOUTH LAKE,CA,37.1759,-118.5627,2926.1,42,0,HUC18,SnowToday_USwest_20210101_SWEsummary.txt,wy2021,2021-01-01,2021,1,1
STANISLAUS MEADOW,CA,38.5055,-119.9373,2362.2,89,0,HUC18,SnowToday_USwest_20210101_SWEsummary.txt,wy2021,2021-01-01,2021,1,1
SLATE CREEK,CA,41.045,-122.478,1737.4,35,0,HUC18,SnowToday_USwest_20210101_SWEsummary.txt,wy2021,2021-01-01,2021,1,1
SNOW MOUNTAIN,CA,40.778,-121.782,1813.6,63,0,HUC18,SnowToday_USwest_20210101_SWEsummary.txt,wy2021,2021-01-01,2021,1,1
SONORA PASS BRIDGE,CA,38.318,-119.601,2667,58,-0.2,HUC16,SnowToday_USwest_20210101_SWEsummary.txt,wy2021,2021-01-01,2021,1,1
SQUAW VALLEY GOLD COAST,CA,39.194,-120.276,2499.4,70,0,HUC16,SnowToday_USwest_20210101_SWEsummary.txt,wy2021,2021-01-01,2021,1,1
STATE LAKES,CA,36.927,-118.574,3139.4,33,0,HUC18,SnowToday_USwest_20210101_SWEsummary.txt,wy2021,2021-01-01,2021,1,1
STOUTS MEADOW,CA,41.17,-121.938,1645.9,87,0,HUC18,SnowToday_USwest_20210101_SWEsummary.txt,wy2021,2021-01-01,2021,1,1
OSTRANDER LAKE,CA,37.637,-119.55,2499.4,74,0,HUC18,SnowToday_USwest_20210101_SWEsummary.txt,wy2021,2021-01-01,2021,1,1
SAWMILL,CA,37.1619,-118.5625,3109,25,0,HUC18,SnowToday_USwest_20210101_SWEsummary.txt,wy2021,2021-01-01,2021,1,1
TAHOE CITY CROSS,CA,39.1714,-120.1547,2057.4,45,0,HUC16,SnowToday_USwest_20210101_SWEsummary.txt,wy2021,2021-01-01,2021,1,1
TRUCKEE 2,CA,39.3,-120.194,1950.7,87,0,HUC16,SnowToday_USwest_20210101_SWEsummary.txt,wy2021,2021-01-01,2021,1,1
TAMARACK SUMMIT,CA,37.165,-119.2,2301.2,30,0,HUC18,SnowToday_USwest_20210101_SWEsummary.txt,wy2021,2021-01-01,2021,1,1
TUOLUMNE MEADOWS,CA,37.873,-119.35,2621.3,50,0,HUC18,SnowToday_USwest_20210101_SWEsummary.txt,wy2021,2021-01-01,2021,1,1
UPPER TYNDALL CREEK,CA,36.65,-118.397,3474.7,18,0,HUC18,SnowToday_USwest_20210101_SWEsummary.txt,wy2021,2021-01-01,2021,1,1
VIRGINIA LAKES RIDGE,CA,38.077,-119.234,2834.6,61,0,HUC16,SnowToday_USwest_20210101_SWEsummary.txt,wy2021,2021-01-01,2021,1,1
VAN VLECK,CA,38.944,-120.3061,2042.2,109,0,HUC18,SnowToday_USwest_20210101_SWEsummary.txt,wy2021,2021-01-01,2021,1,1
WARD CREEK 3,CA,39.1356,-120.2187,2057.4,92,-0.2,HUC16,SnowToday_USwest_20210101_SWEsummary.txt,wy2021,2021-01-01,2021,1,1
WET MEADOWS,CA,36.348,-118.572,2728,45,0,HUC18,SnowToday_USwest_20210101_SWEsummary.txt,wy2021,2021-01-01,2021,1,1
